X,Y,OBJECTID,FEATURE_LOCATION,FEAT_CENT_EAST,FEAT_CENT_NORTH,latitude,longitude,nearest_sensor_id,cluster_geo
359838.0,173397.0,1,Lamb St/ John Cozens House.,359838.0,173397.0,51.45763620929517,-2.578118851844099,51,2
359820.77,173383.710000001,2,"Lamb Street Bus Stop PTZ, St Jude's",359820.77,173383.71,51.45751548107167,-2.578365348094543,51,2
359803.55,173394.85,3,"John Cozens House Gardens PTZ, St Jude's",359803.55,173394.85,51.457614430371194,-2.5786144766975974,51,2
359767.45,173353.880000001,4,"Chartlon, Haviland & Langton Entrance Door's) Ext, St Jude's",359767.45,173353.88,51.457243458240384,-2.5791294333259995,51,2
359788.97,173377.73,5,"Haviland House Laundry #2, St Jude's",359788.97,173377.73,51.45745944961563,-2.578822392230833,51,2
359788.97,173377.73,6,"Haviland House Laundry #1, St Jude's",359788.97,173377.73,51.45745944961563,-2.578822392230833,51,2
359801.02,173390.310000001,7,"Haviland House Lift, St Jude's",359801.02,173390.31,51.45757342647002,-2.5786503769909013,51,2
359801.02,173390.310000001,8,"Haviland House Lower Entrance Door Internal, St Jude's",359801.02,173390.31,51.45757342647002,-2.5786503769909013,51,2
359801.02,173390.310000001,9,"Havliand House Main Entrance Lobby, St Jude's",359801.02,173390.31,51.45757342647002,-2.5786503769909013,51,2
358329.27,167593.57,10,Middleford Rear PTZ,358329.27,167593.57,51.405341990324764,-2.5991522695870106,51,2
359624.39,172233.039999999,11,Bath Bridge Roundabout,359624.39,172233.04,51.447154544842995,-2.5810606400290603,51,2
359411.9,173201.289999999,12,Lower Castle Street (Bike Rack),359411.9,173201.29,51.45584596464557,-2.5842296136267464,50,2
359269.52,173169.23,13,Castle Park (North),359269.52,173169.23,51.45554744897776,-2.58627523884146,50,2
359738.78,174050.439999999,14,"St Nicholas Road/Davey Street PTZ, St Paul's",359738.78,174050.44,51.46350496166694,-2.579621439161569,56,1
359706.76,174025.0,15,Corey Close Lane PTZ,359706.76,174025.0,51.46327392321594,-2.580079489947188,56,1
359665.15,174033.789999999,16,"St Paul's Gardens, Playground #2 PTZ, St Paul's",359665.15,174033.79,51.46334999905158,-2.580679496201226,56,1
359652.27,173995.630000001,17,"St Paul's Gardens, Play area #2 PTZ, St Paul's",359652.27,173995.63,51.46300594214581,-2.580860556111296,56,1
359700.19,174019.16,18,"St Paul's Gardens, Playground #1 PTZ, St Paul's",359700.19,174019.16,51.46322094142755,-2.5801734034771235,56,1
359664.45,174050.140000001,19,"Ludlow Close #2 PTZ, St Paul's",359664.45,174050.14,51.463496970000605,-2.5806914391725138,56,1
359598.19,174034.539999999,20,"Ludlow Close #1 PTZ, St Paul's",359598.19,174034.54,51.46335196575557,-2.5816435162621523,56,1
359615.6,174005.380000001,21,"Burnnel Drive Lane, Burnell/Ludlow PTZ, St Paul's",359615.6,174005.38,51.46309099902257,-2.581389555594311,56,1
359620.24,174011.789999999,22,"Ludlow Close Lift, St Paul's",359620.24,174011.79,51.46314896954436,-2.5813234923957,56,1
359669.73,174051.1,23,"Corey Close Laundry, St Paul's",359669.73,174051.1,51.46350597879924,-2.5806155393083814,56,1
359707.61,174017.99,24,"Corey Close Lift, St Paul's",359707.61,174017.99,51.46321094911035,-2.580066454466497,56,1
358905.0,173816.960000001,25,Dove Street-Spring Hill,358905.0,173816.96,51.46134554551057,-2.5915971412666328,12,2
357664.4,168453.35,26,Whitchurch Lane Middle,357664.4,168453.35,51.41302399578646,-2.6088140323098106,4,2
359561.0,173782.0,27,St Pauls Park,359561.0,173782.0,51.46107844389889,-2.582149997465317,56,1
362060.39,175149.24,28,Fishponds Road/Huyton Road,362060.39,175149.24,51.47354596995268,-2.546318009186485,47,1
361793.79,175035.01,29,Fishponds Road/Royate Hill,361793.79,175035.01,51.4725008525604,-2.550144417069307,47,1
361174.04,174883.65,30,Fishponds Road/Boswell Street,361174.04,174883.65,51.47109760298551,-2.559051322219772,47,1
361273.86,174957.52,31,Fishponds Road/Heath Street,361273.86,174957.52,51.471768694037955,-2.557622194804289,47,1
361456.35,175152.33,32,Fishponds Road/Muller Road (Shell Filling Station),361456.35,175152.33,51.47353291496479,-2.555015889912374,47,1
359597.33,173927.0,33,"Beggarswell Close #1 PTZ, St Paul's",359597.33,173927.0,51.462384893881406,-2.5816436031515724,56,1
359599.9,173909.07,34,"Princes Street PTZ, St Paul's",359599.9,173909.07,51.46222384901122,-2.581604557587543,56,1
358860.51,167630.060000001,35,Willow House Laundry,358860.51,167630.06,51.40570891018279,-2.591518640531251,51,2
358807.27,167660.189999999,36,Oak House Laundry,358807.27,167660.19,51.40597597866461,-2.592287600940395,51,2
358908.99,167491.199999999,37,Hartcliffe Chestnut House Ground Floor Stairwell,358908.99,167491.2,51.40446377251485,-2.5908055266721033,51,2
358908.6,167572.84,38,Hartcliffe Rowan House Ground Floor Stairwell,358908.6,167572.84,51.405197865398144,-2.5908205938230386,51,2
358859.83,167631.619999999,39,Hartcliffe Willow House Ground Floor Stairwell,358859.83,167631.62,51.40572288862989,-2.591528598249334,51,2
358883.15,167496.41,40,"Chestnut House, Rear PTZ",358883.15,167496.41,51.40450874848313,-2.5911776363791446,51,2
358934.75,167537.15,41,"Rowan House, The Groves PTZ",358934.75,167537.15,51.40487882927481,-2.5904404922037076,51,2
358881.61,167606.199999999,42,Willow House Front Door PTZ,358881.61,167606.2,51.40549588757258,-2.591212507648867,51,2
358806.0,167642.0,43,"oak house/willow rear door (externa bullet)
",358806.0,167642.0,51.405812318805886,-2.5923037473590114,51,2
358825.0,167649.0,44,"Oak House, The Groves PTZ",358825.0,167649.0,51.405876644169105,-2.5920313862896753,51,2
358934.75,167537.15,45,Chestnut House Rear Door (External Static),358934.75,167537.15,51.40487882927481,-2.5904404922037076,51,2
358913.07,167488.720000001,46,Chestnut House Rear Lobby,358913.07,167488.72,51.4044417675903,-2.590746580550728,51,2
358913.07,167488.720000001,47,Chestnut House Lift 02,358913.07,167488.72,51.4044417675903,-2.590746580550728,51,2
358913.07,167488.720000001,48,Chestnut House Lift 01,358913.07,167488.72,51.4044417675903,-2.590746580550728,51,2
358913.07,167488.720000001,49,Chestnut House Lift Lobby,358913.07,167488.72,51.4044417675903,-2.590746580550728,51,2
358913.07,167488.720000001,50,Chestnut House Front Lobby,358913.07,167488.72,51.4044417675903,-2.590746580550728,51,2
358914.16,167494.27,51,Chestnut House Front Door Panel,358914.16,167494.27,51.404491753149486,-2.5907315524679095,51,2
358881.61,167606.199999999,52,Rowan House Rear Door (External Static),358881.61,167606.2,51.40549588757258,-2.591212507648867,51,2
358934.75,167537.15,53,Rowan House Front Door,358934.75,167537.15,51.40487882927481,-2.5904404922037076,51,2
358910.2,167572.939999999,54,Rowan House Rear Lobby,358910.2,167572.94,51.405198880572435,-2.5907976015959293,51,2
358910.2,167572.939999999,55,Rowan House Lift 02,358910.2,167572.94,51.405198880572435,-2.5907976015959293,51,2
358910.2,167572.939999999,56,Rowan House Lift 01,358910.2,167572.94,51.405198880572435,-2.5907976015959293,51,2
358910.2,167572.939999999,57,Rowan House Lift Lobby,358910.2,167572.94,51.405198880572435,-2.5907976015959293,51,2
358910.2,167572.939999999,58,Rowan House Front Lobby,358910.2,167572.94,51.405198880572435,-2.5907976015959293,51,2
358831.93,167647.640000001,59,Willow House Rear Door (External Static),358831.93,167647.64,51.40586491805563,-2.591931591670069,51,2
358881.61,167606.199999999,60,Willow House Front Door (External Static),358881.61,167606.2,51.40549588757258,-2.591212507648867,51,2
358860.84,167627.390000001,61,Willow House Rear Lobby,358860.84,167627.39,51.40568492502765,-2.591513586180124,51,2
358860.84,167627.390000001,62,Willow House Lift 02,358860.84,167627.39,51.40568492502765,-2.591513586180124,51,2
358860.84,167627.390000001,63,Willow House Lift 01,358860.84,167627.39,51.40568492502765,-2.591513586180124,51,2
358860.84,167627.390000001,64,Willow House Lift Lobby,358860.84,167627.39,51.40568492502765,-2.591513586180124,51,2
358860.84,167627.390000001,65,Willow House Front Lobby,358860.84,167627.39,51.40568492502765,-2.591513586180124,51,2
358867.15,167625.109999999,66,Willow House Front Door Panel,358867.15,167625.11,51.40566488069255,-2.59142259945858,51,2
358807.69,167660.41,67,Oak House Rear Lobby,358807.69,167660.41,51.40597798745716,-2.5922815878950956,51,2
358807.69,167660.41,68,Oak House Lift 02,358807.69,167660.41,51.40597798745716,-2.5922815878950956,51,2
358807.69,167660.41,69,Oak House Lift 01,358807.69,167660.41,51.40597798745716,-2.5922815878950956,51,2
358807.69,167660.41,70,Oak House Lift Lobby,358807.69,167660.41,51.40597798745716,-2.5922815878950956,51,2
358807.69,167660.41,71,Oak House Front Lobby,358807.69,167660.41,51.40597798745716,-2.5922815878950956,51,2
358908.76,167488.98,72,Chestnut House Laundry,358908.76,167488.98,51.404443793217,-2.590808576180858,51,2
358910.53,167570.380000001,73,Rowan House Laundry,358910.53,167570.38,51.40517588452191,-2.590792560426121,51,2
358825.0,167633.0,74,"oak house rear door (external bullet)
",358825.0,167633.0,51.40573276942841,-2.5920295284086112,51,2
358778.47,167703.35,75,"Oak House Front Door External Fixed
",358778.47,167703.35,51.40636198750576,-2.59270669389391,51,2
358807.69,167660.41,76,"Oak House Ground Floor Stairwell
",358807.69,167660.41,51.40597798745716,-2.5922815878950956,51,2
359062.91,173414.130000001,77,Horsefair/Arcade Street,359062.91,173414.13,51.45773470694324,-2.5892773738505004,1,2
359174.0,173485.0,78,Horsefair/ Barrs Court - Street Lighting Column 008,359174.0,173485.0,51.4583800019859,-2.5876865406276437,5,2
359299.3,173481.9,79,The Horsefair/ Penn Street (Outside Poundland) - Street Lighting Column 011,359299.3,173481.9,51.45836115209024,-2.585882603231845,50,2
361948.83,170724.300000001,80,"Brislington, Kings Arms",361948.83,170724.3,51.433748676006296,-2.5474482154065927,21,0
360502.59,173822.68,81,"Vining Walk, Lower Door Panel (29-54)",360502.59,173822.68,51.461510751604145,-2.5686003691092636,23,0
360499.24,173821.02,82,Vining Walk Laundry (Internal),360499.24,173821.02,51.46149559083067,-2.568648407275089,23,0
360505.15,173776.710000001,83,"Vining Walk Upper, Door Panel (1-20)",360505.15,173776.71,51.46109756238428,-2.568558381077774,23,0
360512.51,173794.890000001,84,Vining Walk Upper PTZ,360512.51,173794.89,51.4612615528532,-2.5684544648598098,23,0
360550.47,173770.58,85,Abraham Close PTZ,360550.47,173770.58,51.46104560205905,-2.567905315570439,23,0
360871.08,173380.609999999,86,Lawrence Hill Station,360871.08,173380.61,51.45756120050755,-2.5632469720413615,29,0
360539.56,173448.24,87,"Payne Drive, Door Panel (14-32)",360539.56,173448.24,51.45814631920106,-2.568026382768365,23,0
356536.44,177498.25,88,On col 23 Canford Lane,356536.44,177498.25,51.494270745592,-2.6261455242558656,61,1
358729.33,173500.140000001,89,Upper Maudlin Street/Lower Maudlin Street,358729.33,173500.14,51.45848388779148,-2.594088924103621,12,2
358893.0,173391.0,90,Lewins Mead/ Haymarket (Outside Bay Horse),358893.0,173391.0,51.45751440350445,-2.5917203490046985,2,2
362758.8,173585.33,91,"Summerhill Road, Hardings Terrace",362758.8,173585.33,51.4595294514866,-2.536096787227767,32,0
358935.55,172078.189999999,92,Att to Column 3,358935.55,172078.19,51.445712570535214,-2.5909554597046003,14,2
361007.87,173033.449999999,93,"Ashmead House, Lower Back Door (Stairwell)",361007.87,173033.45,51.454448929616284,-2.561239745258368,34,0
361008.65,173026.99,94,"Ashmead House, Lower Back Door (External)",361008.65,173026.99,51.45439089409356,-2.5612278064467895,34,0
360907.21,172918.33,95,"Phoenix House, Upper Entrance Door Panel",360907.21,172918.33,51.45340681034496,-2.5626758100809393,36,0
360898.94,172918.17,96,"Phoenix House, Upper Entrance PTZ",360898.94,172918.17,51.4534048003501,-2.562794819135875,36,0
360909.08,172917.98,97,"Phoenix House, Upper Entrance Lift  ",360909.08,172917.98,51.453403792248174,-2.562648857240934,36,0
360909.08,172917.98,98,"Phoenix House, Upper Entrance Lift lobby",360909.08,172917.98,51.453403792248174,-2.562648857240934,36,0
360909.08,172917.98,99,"Phoenix House, Upper Entrance (Internal)",360909.08,172917.98,51.453403792248174,-2.562648857240934,36,0
360948.78,172975.4,100,"Ecclestone House, Avonvale Road PTZ",360948.78,172975.4,51.45392286169177,-2.562083812293568,36,0
360970.29,172953.1,101,"Ecclestone House, Lift lobby (Upper)",360970.29,172953.1,51.45372382053948,-2.56177176276442,36,0
361026.61,173022.289999999,102,"Ashmead House, Front Lower, External PTZ",361026.61,173022.29,51.45434986800733,-2.5609687918174036,34,0
361012.38,173015.390000001,103,"Ashmead House, Rear Lower PTZ",361012.38,173015.39,51.45428684215746,-2.5611728419263704,34,0
360558.36,173444.75,104,"Payne Drive, Bin Room (External)",360558.36,173444.75,51.458116247265444,-2.5677553848651757,23,0
360551.65,173501.970000001,105,"Croydon House, Bridge PTZ",360551.65,173501.97,51.45863030918384,-2.567858353948784,23,0
360512.0,173474.0,106,"Walker Close Underpass 2
",360512.0,173474.0,51.458376034016986,-2.5684259606531183,23,0
360477.0,173443.960000001,107,"Walker Close Underpass 1
",360477.0,173443.96,51.45810346718024,-2.568926397240405,23,0
359070.0,175333.0,108,Gloucester/ Sommerville Rd - Street Lighting Column 17,359070.0,175333.0,51.47498985741432,-2.5893975836741046,56,1
358974.05,174943.0,109,"Gloucester Road, Overton Road",358974.05,174943.0,51.47147599825197,-2.59073390039627,12,2
356583.91,168319.810000001,110,Highridge Road/King George Road,356583.91,168319.81,51.41174145869845,-2.624334860139949,104,2
360502.44,174313.470000001,111,Lower Ashley Road/Warwick Road/Oxford Place,360502.44,174313.47,51.46592398346892,-2.5686573786827784,56,1
358278.31,167622.689999999,112,Millmead Rear (External PTZ),358278.31,167622.69,51.40560009431804,-2.5998883683615084,51,2
358352.29,167661.23,113,Millmead House Car Park PTZ,358352.29,167661.23,51.40595209132439,-2.598829248288994,51,2
358405.0,167641.779999999,114,Middleford House Play Park PTZ,358405.0,167641.78,51.40578106328558,-2.5980691233981523,51,2
358414.28,167687.970000001,115,Hayleigh House Car Park PTZ,358414.28,167687.97,51.40619709196286,-2.5979411167775095,51,2
358278.31,167622.689999999,116,Millmead House Rear Door (External Static),358278.31,167622.69,51.40560009431804,-2.5998883683615084,51,2
358352.29,167661.23,117,Millmead House Front Door (External Static),358352.29,167661.23,51.40595209132439,-2.598829248288994,51,2
358303.29,167639.609999999,118,Millmead House Rear Lobby,358303.29,167639.61,51.40575407930889,-2.5995312083194797,51,2
358303.29,167639.609999999,119,Millmead House Lift 02,358303.29,167639.61,51.40575407930889,-2.5995312083194797,51,2
358303.29,167639.609999999,120,Millmead House Lift 01,358303.29,167639.61,51.40575407930889,-2.5995312083194797,51,2
358303.29,167639.609999999,121,Millmead House Lift Lobby,358303.29,167639.61,51.40575407930889,-2.5995312083194797,51,2
358303.29,167639.609999999,122,Millmead House Front Lobby,358303.29,167639.61,51.40575407930889,-2.5995312083194797,51,2
358306.87,167643.92,123,Millmead House Front Door Panel,358306.87,167643.92,51.4057930987893,-2.599480243504748,51,2
358352.29,167661.23,124,Hayleigh House Rear Door (External Static),358352.29,167661.23,51.40595209132439,-2.598829248288994,51,2
358414.28,167687.970000001,125,Hayleigh House Front Door (External Static),358414.28,167687.97,51.40619709196286,-2.5979411167775095,51,2
358389.06,167675.5,126,Hayleigh House Rear Lobby,358389.06,167675.5,51.4060831093011,-2.598302258472089,51,2
358389.06,167675.5,127,Hayleigh House Lift 02,358389.06,167675.5,51.4060831093011,-2.598302258472089,51,2
358389.06,167675.5,128,Hayleigh House Lift 01,358389.06,167675.5,51.4060831093011,-2.598302258472089,51,2
358389.06,167675.5,129,Hayleigh House Lift Lobby,358389.06,167675.5,51.4060831093011,-2.598302258472089,51,2
358389.06,167675.5,130,Hayleigh House Front Lobby,358389.06,167675.5,51.4060831093011,-2.598302258472089,51,2
358393.96,167678.68,131,Hayleigh House Front Door Panel,358393.96,167678.68,51.40611206397708,-2.5982321811508204,51,2
358301.66,167644.41,132,Millmead House Laundry,358301.66,167644.41,51.40579712179409,-2.5995552081498685,51,2
358391.5,167676.029999999,133,Hayleigh House Laundry,358391.5,167676.03,51.40608805422011,-2.5982672392165003,51,2
358302.4,167641.73,134,Hartcliffe Millmead House 10th Floor Lift Lobby,358302.4,167641.73,51.40577307723175,-2.599544253619172,51,2
358302.4,167641.73,135,Hartcliffe Millmead House 9th Floor Lift Lobby,358302.4,167641.73,51.40577307723175,-2.599544253619172,51,2
358302.4,167641.73,136,Hartcliffe Millmead House 8th Floor Lift Lobby,358302.4,167641.73,51.40577307723175,-2.599544253619172,51,2
358302.4,167641.73,137,Hartcliffe Millmead House 7th Floor Lift Lobby,358302.4,167641.73,51.40577307723175,-2.599544253619172,51,2
358302.4,167641.73,138,Hartcliffe Millmead House 6th Floor Lift Lobby,358302.4,167641.73,51.40577307723175,-2.599544253619172,51,2
358302.4,167641.73,139,Hartcliffe Millmead house 5th Floor Lift Lobby,358302.4,167641.73,51.40577307723175,-2.599544253619172,51,2
358302.4,167641.73,140,Hartcliffe Millmead House 4th Floor Lift Lobby,358302.4,167641.73,51.40577307723175,-2.599544253619172,51,2
358302.4,167641.73,141,Hartcliffe Millmead House 3rd Floor Lift Lobby,358302.4,167641.73,51.40577307723175,-2.599544253619172,51,2
358302.4,167641.73,142,Hartcliffe Millmead House 2nd Floor Lift Lobby,358302.4,167641.73,51.40577307723175,-2.599544253619172,51,2
358302.4,167641.73,143,Hartcliffe Millmead House 1st Floor Lift Lobby,358302.4,167641.73,51.40577307723175,-2.599544253619172,51,2
358302.4,167641.73,144,Hartcliffe Millmead House Ground Floor Stairwell,358302.4,167641.73,51.40577307723175,-2.599544253619172,51,2
358389.15,167677.390000001,145,Hartcliffe Hayleigh House Ground Floor Stairwell,358389.15,167677.39,51.40610011109004,-2.5983011862731744,51,2
358307.0,167637.0,146,Millmead House 4th Floor Stairwell,358307.0,167637.0,51.40573088260753,-2.599477560783416,51,2
358307.0,167637.0,147,Millmead House 5th Floor Stairwell,358307.0,167637.0,51.40573088260753,-2.599477560783416,51,2
358307.0,167637.0,148,Millmead House 6th Floor Stairwell,358307.0,167637.0,51.40573088260753,-2.599477560783416,51,2
358307.0,167637.0,149,Millmead House 7th Floor Stairwell,358307.0,167637.0,51.40573088260753,-2.599477560783416,51,2
358307.0,167637.0,150,Millmead House 8th Floor Stairwell,358307.0,167637.0,51.40573088260753,-2.599477560783416,51,2
358307.0,167637.0,151,Millmead House 9th Floor Stairwell,358307.0,167637.0,51.40573088260753,-2.599477560783416,51,2
358307.0,167637.0,152,Millmead House Ground Floor Stairwell,358307.0,167637.0,51.40573088260753,-2.599477560783416,51,2
358390.0,167677.0,153,Hayleigh House Ground Floor Stairwell,358390.0,167677.0,51.40609666653077,-2.5982889195078234,51,2
358390.0,167677.0,154,Hayleigh House 1st Floor Stairwell,358390.0,167677.0,51.40609666653077,-2.5982889195078234,51,2
358390.0,167677.0,155,Hayleigh House 2nd Floor Stairwell,358390.0,167677.0,51.40609666653077,-2.5982889195078234,51,2
358390.0,167677.0,156,Hayleigh House 3rd Floor Stairwell,358390.0,167677.0,51.40609666653077,-2.5982889195078234,51,2
358390.0,167677.0,157,Hayleigh House 4th Floor Stairwell,358390.0,167677.0,51.40609666653077,-2.5982889195078234,51,2
358390.0,167677.0,158,Hayleigh House 5th Floor Stairwell,358390.0,167677.0,51.40609666653077,-2.5982889195078234,51,2
358390.0,167677.0,159,Hayleigh House 6th Floor Stairwell,358390.0,167677.0,51.40609666653077,-2.5982889195078234,51,2
358390.0,167677.0,160,Hayleigh House 7th Floor Stairwell,358390.0,167677.0,51.40609666653077,-2.5982889195078234,51,2
358390.0,167677.0,161,Hayleigh House 8th Floor Stairwell,358390.0,167677.0,51.40609666653077,-2.5982889195078234,51,2
358390.0,167677.0,162,Hayleigh House 9th Floor Stairwell,358390.0,167677.0,51.40609666653077,-2.5982889195078234,51,2
358307.0,167637.0,163,Millmead House 1st Floor Stairwell,358307.0,167637.0,51.40573088260753,-2.599477560783416,51,2
358307.0,167637.0,164,Millmead House 2nd Floor Stairwell,358307.0,167637.0,51.40573088260753,-2.599477560783416,51,2
358307.0,167637.0,165,Millmead House 3rd Floor Stairwell,358307.0,167637.0,51.40573088260753,-2.599477560783416,51,2
361465.46,170987.08,166,Bath Road/Tramway Road,361465.46,170987.08,51.43607896323689,-2.5544307929838803,22,0
359896.17,171886.82,167,"Att C15 - Jam Cam, not in use",359896.17,171886.82,51.44406060590306,-2.5771103193194187,51,2
359872.83,171904.380000001,168,Att to Column 13,359872.83,171904.38,51.4442168541409,-2.5774481645436067,51,2
360257.6,171667.380000001,169,Bath Road/Totterdown Bridge,360257.6,171667.38,51.44211285430383,-2.5718848282347624,36,0
359897.57,171861.18,170,Bath Road/Wells Road (Three Lamps),359897.57,171861.18,51.44383014668136,-2.577087267776324,51,2
357952.18,170542.449999999,171,On Col 9,357952.18,170542.45,51.431830864777055,-2.604923773979969,4,2
357834.59,170659.77,172,Parson St Rail Station,357834.59,170659.77,51.43287707761756,-2.6066293605115667,4,2
357956.92,170523.279999999,173,Bedminster Road/Parson Street,357956.92,170523.28,51.43165883785907,-2.604853309439546,4,2
355516.52,178576.310000001,174,On C67,355516.52,178576.31,51.50388524869064,-2.640973705108762,61,1
354923.03,178750.74,175,Watchman camera opp C53,354923.03,178750.74,51.50540667064883,-2.649547165547298,61,1
355162.54,178695.050000001,176,O/S 470 Opp 491 Watchman camera oppC58,355162.54,178695.05,51.5049249694444,-2.6460890445773173,61,1
360966.96,173679.609999999,177,Russell Town Avenue/Whitehall Road (cycle path),360966.96,173679.61,51.46025647078323,-2.561899898655946,29,0
361071.0,173787.0,178,Owen Square Bath-Bristol Cycle,361071.0,173787.0,51.46122930337974,-2.560414095620286,28,0
359807.73,174300.470000001,179,Ashley Road/Ashfield Place/Badminton Road,359807.73,174300.47,51.465758159143384,-2.5786572897498603,56,1
360593.07,173556.82,180,"Walker Close, Croydon Street Door Panel (1-16)",360593.07,173556.82,51.45912641329494,-2.567268259387417,23,0
360593.38,173551.92,181,Croydon Street Door Panel (Fixed Camera in Housing Above Door),360593.38,173551.92,51.45908237345156,-2.5672632509151723,23,0
360591.96,173547.93,182,"Croydon House, Rear PTZ",360591.96,173547.93,51.45904639597236,-2.567283246127055,23,0
356887.0,179125.0,183,Croa Lane/Standfast Road Column 2,356887.0,179125.0,51.50892529170504,-2.621294480230111,63,1
357006.0,179088.0,184,Crow Lane Column 19,357006.0,179088.0,51.50860165859461,-2.619575185638624,63,1
361001.3,172920.17,185,"Ecclestone House, Main Entrance Door Panel",361001.3,172920.17,51.453429846671796,-2.561321813623365,36,0
361005.41,172939.49,186,"Ecclestone House, Car Park PTZ",361005.41,172939.49,51.453603858115166,-2.5612647904609136,36,0
360997.72,172905.73,187,"Ecclestone House, Rear PTZ",360997.72,172905.73,51.453299753394525,-2.5613717465285437,36,0
361004.26,172916.470000001,188,"Ecclestone House, Main Entrance Lift Lobby",361004.26,172916.47,51.45339677967017,-2.5612788035017005,36,0
361004.26,172916.470000001,189,"Ecclestone House, Laundry",361004.26,172916.47,51.45339677967017,-2.5612788035017005,36,0
361004.26,172916.470000001,190,"Ecclestone House, Laundry Door",361004.26,172916.47,51.45339677967017,-2.5612788035017005,36,0
361004.26,172916.470000001,191,"Ecclestone House, Main Entrance (Internal)",361004.26,172916.47,51.45339677967017,-2.5612788035017005,36,0
361004.26,172916.470000001,192,"Ecclestone House, Main Entrance (External)",361004.26,172916.47,51.45339677967017,-2.5612788035017005,36,0
360942.95,172894.25,193,"Phoenix House, Laundry Door",360942.95,172894.25,51.453192746837786,-2.56215875920009,36,0
360942.95,172894.25,194,"Phoenix House, Main Entrance (External)",360942.95,172894.25,51.453192746837786,-2.56215875920009,36,0
360942.95,172894.25,195,"Phoenix House, Main Entrance (Internal)",360942.95,172894.25,51.453192746837786,-2.56215875920009,36,0
360942.95,172894.25,196,"Phoenix House, Main Entrance Lift Lobby",360942.95,172894.25,51.453192746837786,-2.56215875920009,36,0
360942.95,172894.25,197,"Phoenix House, Main Entrance Lift  ",360942.95,172894.25,51.453192746837786,-2.56215875920009,36,0
360942.95,172894.25,198,"Phoenix House, Laundry",360942.95,172894.25,51.453192746837786,-2.56215875920009,36,0
360939.8,172882.82,199,"Phoenix House, Aiken Street PTZ",360939.8,172882.82,51.45308974924008,-2.562202833167493,36,0
360941.14,172912.4,200,"Phoenix House, Car Park PTZ",360941.14,172912.4,51.45335582937904,-2.5621868143688062,36,0
360967.31,172918.65,201,"Ecclestone/Phoenix House, Park Area PTZ",360967.31,172918.65,51.45341383562067,-2.561810850428477,36,0
360936.94,172899.08,202,"Phoenix House, Main Entrance Door Panel",360936.94,172899.08,51.45323576415361,-2.5622457918252834,36,0
360941.14,172912.4,203,"Phoenix House, Vehicle Gates (Static) ",360941.14,172912.4,51.45335582937904,-2.5621868143688062,36,0
360941.14,172912.4,204,"Ecclestone House, Vehicle Gates (Static) ",360941.14,172912.4,51.45335582937904,-2.5621868143688062,36,0
359199.64,173128.310000001,205,Castle Park (West),359199.64,173128.31,51.45517445878451,-2.5872763142602784,50,2
357410.0,170179.0,206,A38/ Bedminster Down Rd (Cross Hands) - Street Lighting Column 23,357410.0,170179.0,51.4285221798179,-2.6126796919339146,104,2
355923.09,168982.27,207,Lime Kiln Roundabout (Upper),355923.09,168982.27,51.41764735801935,-2.633919392744965,104,2
355856.08,169043.02,208,Lime Kiln Roundabout (Lower),355856.08,169043.02,51.41818841129239,-2.634890643073287,104,2
359761.53,173414.43,209,"Elbridge House, Great Ann Street PTZ, St Jude's",359761.53,173414.43,51.45778750975403,-2.57922153586989,51,2
359785.27,173455.609999999,210,"Elton House Rear Area PTZ, St Jude's",359785.27,173455.61,51.45815949242349,-2.578884508217916,51,2
358411.79,173039.619999999,211,"Trenchard Street Car Park, Level 11 Frogmore Street Stairwell block PTZ
",358411.79,173039.62,51.45431960696561,-2.5986054582557383,101,2
358409.24,173093.029999999,212,"Trenchard Street Car Park, Level 10 Park Row Near Corner",358409.24,173093.03,51.454799686877756,-2.5986484419375215,101,2
358411.79,173039.619999999,213,"Trenchard Street Car Park, Level 10 Frogmore Street Corner
",358411.79,173039.62,51.45431960696561,-2.5986054582557383,101,2
358409.24,173093.029999999,214,"Trenchard Street Car Park, Level 09 Park Row Near Corner
",358409.24,173093.03,51.454799686877756,-2.5986484419375215,101,2
358411.79,173039.619999999,215,"Trenchard Street Car Park, Level 09 Frogmore Street Corner
",358411.79,173039.62,51.45431960696561,-2.5986054582557383,101,2
358411.79,173039.619999999,216,"Trenchard Street Car Park, Level 08 Frogmore St Corner",358411.79,173039.62,51.45431960696561,-2.5986054582557383,101,2
358409.24,173093.029999999,217,"Trenchard street Car Park, Level 07 Park Row Near Corner",358409.24,173093.03,51.454799686877756,-2.5986484419375215,101,2
358411.79,173039.619999999,218,"Trenchard Street Car Park, Level 07  Frogmore Street Corner
",358411.79,173039.62,51.45431960696561,-2.5986054582557383,101,2
358409.24,173093.029999999,219,"Trenchard Street Car Park, Level 06 Park Row Near Corner
",358409.24,173093.03,51.454799686877756,-2.5986484419375215,101,2
358411.79,173039.619999999,220,"Trenchard Street Car Park, Level 06 Frogmore Street Corner
",358411.79,173039.62,51.45431960696561,-2.5986054582557383,101,2
358409.24,173093.029999999,221,"Trenchard Street Car Park, Level 05 Trenchard Street Park Row Near Corner
",358409.24,173093.03,51.454799686877756,-2.5986484419375215,101,2
358388.87,173082.41,222,"Trenchard Street Car Park, Level 05 By Park Row Stairs
",358388.87,173082.41,51.45470269368699,-2.598940376361965,101,2
358435.45,173009.51,223,"Trenchard Street Car Park, Level 05 Frogmore Street Corner",358435.45,173009.51,51.45405059325148,-2.5982613856294527,101,2
358457.93,173031.24,224,"Trenchard Street Car Park, Level 05 Trenchard St Corner",358457.93,173031.24,51.45424764171475,-2.597940390424103,4,2
358439.0,173066.0,225,"Trenchard Street Car Park, Level 04 Park Row Near Corner
",358439.0,173066.0,51.4545588169147,-2.5982169310126593,101,2
358407.36,173041.109999999,226,"Trenchard Street Car Park, Level 04 Frogmore Street Corner
",358407.36,173041.11,51.45433267964438,-2.5986693935692244,101,2
358439.0,173066.0,227,"Trenchard Street Car Park, Level 03 Lodge Street Near Corner
",358439.0,173066.0,51.4545588169147,-2.5982169310126593,101,2
358435.45,173009.51,228,"Trenchard Street Car Park, Level 03 Frogmore Far Street Corner
",358435.45,173009.51,51.45405059325148,-2.5982613856294527,101,2
358413.0,173045.0,229,"Trenchard Street Car Park, Level 02 Lodge Street Far Corner
",358413.0,173045.0,51.454368073296415,-2.5985886757101615,101,2
358457.93,173031.24,230,"Trenchard Street Car Park, Level 02 Trenchard Street Corner
",358457.93,173031.24,51.45424764171475,-2.597940390424103,4,2
358435.45,173009.51,231,"Trenchard Street Car Park, Level 01 Frogmore Street Far Corner
",358435.45,173009.51,51.45405059325148,-2.5982613856294527,101,2
358435.62,173056.109999999,232,"Trenchard Street Car Park, Level 01 Lodge Street Near Corner
",358435.62,173056.11,51.45446963697311,-2.5982644163783766,101,2
358444.45,173064.6,233,"Trenchard Street Car Park, Lift #3",358444.45,173064.6,51.45454662816931,-2.598138325368195,101,2
358444.45,173064.6,234,"Trenchard Street Car Park, Lift #2",358444.45,173064.6,51.45454662816931,-2.598138325368195,101,2
358444.45,173064.6,235,"Trenchard Street Car Park, Lift #1",358444.45,173064.6,51.45454662816931,-2.598138325368195,101,2
358380.75,173083.59,236,"Trenchard Street Car Park, Level 11 Park Row Stairwell
",358380.75,173083.59,51.454712707302434,-2.599057385664955,101,2
358405.69,173041.119999999,237,"Trenchard Street Car Park, Level 11 Entrance to Park Row Stairwell 
",358405.69,173041.12,51.45433264683976,-2.5986934307095773,101,2
358405.19,173039.01,238,"Trenchard Street Car Park, Level 11 Frogmore Street Stairwell
",358405.19,173039.01,51.454313636793565,-2.598700378907557,101,2
358420.6,173063.35,239,"Trenchard Street Car Park, Level 11 Entrance to Lodge Street Stairs
",358420.6,173063.35,51.45453363644817,-2.5984814481152885,101,2
358440.09,173066.75,240,"Trenchard Street Car Park, Level 11 Lodge Street Stairwell
",358440.09,173066.75,51.45456564101872,-2.5982013309389287,101,2
358380.75,173083.59,241,"Trenchard Street Car Park, Level 10 Park Row Stairwell",358380.75,173083.59,51.454712707302434,-2.599057385664955,101,2
358386.13,173079.210000001,242,"Trenchard Street Car Park, Level 10 Entrance to Park Row Stairs
",358386.13,173079.21,51.4546737175629,-2.5989794363360965,101,2
358405.19,173039.01,243,"Trenchard Street Car Park, Level 10/11 Frogmore Street Stairwell
",358405.19,173039.01,51.454313636793565,-2.598700378907557,101,2
358436.79,173063.220000001,244,"Trenchard Street Car Park, Level 10 Entrance to Lodge Street Stairs
",358436.79,173063.22,51.45453365662703,-2.5982484124785987,101,2
358440.09,173066.75,245,"Trenchard Street Car Park, Level 10 Lodge Street Stairwell",358440.09,173066.75,51.45456564101872,-2.5982013309389287,101,2
358442.02,173064.84,246,"Trenchard Street Car Park, Level 10 Lodge Street Lift Lobby
",358442.02,173064.84,51.45454860784969,-2.598173328228131,101,2
358380.75,173083.59,247,"Trenchard Street Car Park, Level 09 Park Row Stairs
",358380.75,173083.59,51.454712707302434,-2.599057385664955,101,2
358386.13,173079.210000001,248,"Trenchard Street Car Park, Level 09 Entrance to Park Row Stairs
",358386.13,173079.21,51.4546737175629,-2.5989794363360965,101,2
358405.19,173039.01,249,"Trenchard Street Car Park, Level 09/10 Frogmore Street Stairwell
",358405.19,173039.01,51.454313636793565,-2.598700378907557,101,2
358436.79,173063.220000001,250,"Trenchard Street Car Park, Level 09 Entrance to Lodge Street Street Stairs
",358436.79,173063.22,51.45453365662703,-2.5982484124785987,101,2
358440.09,173066.75,251,"Trenchard Street Car Park, Level 09 Lodge Street Street Stairwell
",358440.09,173066.75,51.45456564101872,-2.5982013309389287,101,2
358442.02,173064.84,252,"Trenchard Street Car Park, Level 09 Lodge Street Lift Lobby Street Stairs
",358442.02,173064.84,51.45454860784969,-2.598173328228131,101,2
358389.44,173084.74,253,"Trenchard Street Car Park, Level 08 Park Row POF 
",358389.44,173084.74,51.454723687151045,-2.5989324465909567,101,2
358389.44,173084.74,254,"Trenchard Street Car Park, Level 08 Park Row POF OLD
",358389.44,173084.74,51.454723687151045,-2.5989324465909567,101,2
358380.75,173083.59,255,"Trenchard Street Car Park, Level 08 Park Row Stairwell
",358380.75,173083.59,51.454712707302434,-2.599057385664955,101,2
358386.13,173079.210000001,256,"Trenchard Street Car Park, Level 08 Entrance To Park Row Stairs
",358386.13,173079.21,51.4546737175629,-2.5989794363360965,101,2
358405.19,173039.01,257,"Trenchard Street Car Park, Level 08/09 Frogmore Street Stairwell
",358405.19,173039.01,51.454313636793565,-2.598700378907557,101,2
358436.79,173063.220000001,258,"Trenchard Street Car Park, Level 08 Entrance to Lodge Street Stairs",358436.79,173063.22,51.45453365662703,-2.5982484124785987,101,2
358440.09,173066.75,259,"Trenchard Street Car Park, Level 08 Lodge Street Stairwell
",358440.09,173066.75,51.45456564101872,-2.5982013309389287,101,2
358442.02,173064.84,260,"Trenchard Street Car Park, Level 08 Lodge Street Lift Lobby
",358442.02,173064.84,51.45454860784969,-2.598173328228131,101,2
358380.75,173083.59,261,"Trenchard Street Car Park, Level 07 Park Row Stairwell
",358380.75,173083.59,51.454712707302434,-2.599057385664955,101,2
358386.13,173079.210000001,262,"Trenchard Street Car Park, Level 07 Entrance to Park Row Stairs",358386.13,173079.21,51.4546737175629,-2.5989794363360965,101,2
358405.19,173039.01,263,"Trenchard Street Car Park, Level 07/08 Frogmore Street Stairwell
",358405.19,173039.01,51.454313636793565,-2.598700378907557,101,2
358436.79,173063.220000001,264,"Trenchard Street Car Park, Level 07 Entrance to Lodge Street Stairs",358436.79,173063.22,51.45453365662703,-2.5982484124785987,101,2
358440.09,173066.75,265,"Trenchard Street Car Park, Level 07 Lodge Street Stairwell 
",358440.09,173066.75,51.45456564101872,-2.5982013309389287,101,2
358442.02,173064.84,266,"Trenchard Street Car Park, Level 07 Lodge Street Lift Lobby",358442.02,173064.84,51.45454860784969,-2.598173328228131,101,2
358380.75,173083.59,267,"Trenchard Street Car Park, Level 06 Park Row Stairwell
",358380.75,173083.59,51.454712707302434,-2.599057385664955,101,2
358386.13,173079.210000001,268,"Trenchard Street Car Park, Level 06 Entrance to Park Row Stairs",358386.13,173079.21,51.4546737175629,-2.5989794363360965,101,2
358405.19,173039.01,269,"Trenchard Street Car Park, Level 06/07 Frogmore Street Stairwell
",358405.19,173039.01,51.454313636793565,-2.598700378907557,101,2
358461.62,173031.65,270,"Trenchard Street Car Park, Level 6",358461.62,173031.65,51.4542515992944,-2.597887329271971,4,2
358461.62,173031.65,271,"Trenchard Street car Park, Level 5&6 Trenchard Street Stairwell",358461.62,173031.65,51.4542515992944,-2.597887329271971,4,2
358437.44,173057.210000001,272,"Trenchard Street Car Park, Level 05/06 Trenchard Street Stairwell
",358437.44,173057.21,51.45447966192098,-2.5982383507082174,101,2
358436.79,173063.220000001,273,"Trenchard Street Car Park, Level 06 Entrance to Lodge Street Stairs",358436.79,173063.22,51.45453365662703,-2.5982484124785987,101,2
358440.09,173066.75,274,"Trenchard Street Car Park, Level 06 Lodge Street Stairwell
",358440.09,173066.75,51.45456564101872,-2.5982013309389287,101,2
358442.02,173064.84,275,"Trenchard Street Car Park, Level 06 Lodge Street Lift Lobby",358442.02,173064.84,51.45454860784969,-2.598173328228131,101,2
358380.75,173083.59,276,"Trenchard Street Car Park, Level 05 Park Row Stairwell
",358380.75,173083.59,51.454712707302434,-2.599057385664955,101,2
358405.19,173039.01,277,"Trenchard Street Car Park, Level 05/06 Frogmore Street Stairs
",358405.19,173039.01,51.454313636793565,-2.598700378907557,101,2
358461.62,173031.65,278,"Trenchard Street Car Park, Level 04/05 Trenchard Street Stairwell
",358461.62,173031.65,51.4542515992944,-2.597887329271971,4,2
358458.16,173033.35,279,"Trenchard Street Car Park, Level 05 Entrance to Trenchard Street Stairs",358458.16,173033.35,51.45426663190001,-2.597937327968865,4,2
358436.79,173063.220000001,280,"Trenchard Street Car Park, Level 05 SOS & Entrance to Lodge Street Stairs",358436.79,173063.22,51.45453365662703,-2.5982484124785987,101,2
358440.09,173066.75,281,"Trenchard Street Car Park, Level 05 Lodge Street Stairwell
",358440.09,173066.75,51.45456564101872,-2.5982013309389287,101,2
358448.25,173062.119999999,282,"Trenchard Street Car Park, Level 05 Lodge Street Lifts/POF
",358448.25,173062.12,51.454524606785085,-2.5980833410707826,101,2
358442.02,173064.84,283,"Trenchard Street Car Park, Level 05 Lodge Street Lift Lobby",358442.02,173064.84,51.45454860784969,-2.598173328228131,101,2
358405.19,173039.01,284,"Trenchard Street Car Park, Level 04/05 Frogmore Street Stairwell
",358405.19,173039.01,51.454313636793565,-2.598700378907557,101,2
358461.62,173031.65,285,"Trenchard Street Car Park, Level 03/04 Trenchard Street Stairwell
",358461.62,173031.65,51.4542515992944,-2.597887329271971,4,2
358458.16,173033.35,286,"Trenchard Street Car Park, Level 04 Entrance to Trenchard Street Stairs 
",358458.16,173033.35,51.45426663190001,-2.597937327968865,4,2
358436.79,173063.220000001,287,"Trenchard Street Car Park, Level 04 Entrance to Lodge Street Stairs
",358436.79,173063.22,51.45453365662703,-2.5982484124785987,101,2
358440.09,173066.75,288,"Trenchard Street Car Park, Level 04 Lodge Street Stairwell
",358440.09,173066.75,51.45456564101872,-2.5982013309389287,101,2
358442.02,173064.84,289,"Trenchard Street Car Park, Level 04 Lodge Street Lift Lobby 
",358442.02,173064.84,51.45454860784969,-2.598173328228131,101,2
358405.19,173039.01,290,"Trenchard Street Car Park, Level 03/04 Frogmore Street Stairwell
",358405.19,173039.01,51.454313636793565,-2.598700378907557,101,2
358461.62,173031.65,291,"Trenchard Street Car Park, Level 02/03 Trenchard Street Stairwell
",358461.62,173031.65,51.4542515992944,-2.597887329271971,4,2
358458.16,173033.35,292,"Trenchard Street Car Park, Level 03 Entrance to Trenchard Street Stairs
",358458.16,173033.35,51.45426663190001,-2.597937327968865,4,2
358436.79,173063.220000001,293,"Trenchard Street Car Park, Level 03 Entrance to Lodge Street Stairs
",358436.79,173063.22,51.45453365662703,-2.5982484124785987,101,2
358440.09,173066.75,294,"Trenchard Street Car Park, Level 03 Lodge Street Stairwell
",358440.09,173066.75,51.45456564101872,-2.5982013309389287,101,2
358451.0,173056.0,295,"Trenchard Street Car Park, Level 03 Lodge Street Lift Lobby
",358451.0,173056.0,51.4544697770997,-2.59804304161238,101,2
358405.19,173039.01,296,"Trenchard Street Car Park, Level 02/03 Frogmore Street Stairwell
",358405.19,173039.01,51.454313636793565,-2.598700378907557,101,2
358461.62,173031.65,297,"Trenchard Street Car Park, Level 01/02 Trenchard Street Stairwell

",358461.62,173031.65,51.4542515992944,-2.597887329271971,4,2
358458.16,173033.35,298,"Trenchard Street Car Park, Level 02 Entrance to Trenchard Street Stairs
",358458.16,173033.35,51.45426663190001,-2.597937327968865,4,2
358436.79,173063.220000001,299,"Trenchard Street Car Park, Level 02 Lodge Street Car Bays
",358436.79,173063.22,51.45453365662703,-2.5982484124785987,101,2
358440.0,173061.0,300,"Trenchard Street Car Park, Level 02 Entrance to Lodge Street Stairwell
",358440.0,173061.0,51.45451392991377,-2.5982019504844587,101,2
358451.0,173056.0,301,"Trenchard Street Car Park, Level 02 Lodge Street Lift Lobby",358451.0,173056.0,51.4544697770997,-2.59804304161238,101,2
358448.03,173077.470000001,302,"Trenchard Street Car Park, Level 02 External Fire Exit Stairs
",358448.03,173077.47,51.454662619160175,-2.598088311281495,101,2
358437.0,173063.0,303,"Trenchard Street Car Park, Level 02 Vehicle Entry/Exit Ramp",358437.0,173063.0,51.454531693789434,-2.598245364119551,101,2
358405.19,173039.01,304,"Trenchard Street Car Park, Level 01/02 Frogmore Street Stairwell
",358405.19,173039.01,51.454313636793565,-2.598700378907557,101,2
358460.0,173031.0,305,"Trenchard Street Car Park, Level 01 Trenchard Street Pedestrian Entrance
",358460.0,173031.0,51.45424563554236,-2.597910569200268,4,2
358458.16,173033.35,306,"Trenchard Street Car Park, Level 01 Entrance to Lodge Street Stairs",358458.16,173033.35,51.45426663190001,-2.597937327968865,4,2
358458.74,173036.9,307,"Trenchard Street Car Park, Level 01 Trenchard Street Pay Machines ",358458.74,173036.9,51.4542985963793,-2.59792939720637,4,2
358463.69,173038.42,308,"Trenchard Street Car Park, Level 01 Trenchard Street Disabled Lift External",358463.69,173038.42,51.45431262764028,-2.5978583314695025,4,2
358436.79,173063.220000001,309,"Trenchard Street Car Park, Level 01 Entrance to Lodge Street Stairs & Pay Machines",358436.79,173063.22,51.45453365662703,-2.5982484124785987,101,2
358440.09,173066.75,310,"Trenchard Street Car Park, Level 01 Lodge Street Stairwell
",358440.09,173066.75,51.45456564101872,-2.5982013309389287,101,2
358446.0,173061.0,311,"Trenchard Street Car Park, Level 01 Lodge Street Lift Lobby",358446.0,173061.0,51.4545143704598,-2.5981155933765634,101,2
358444.99,173062.82,312,"Trenchard Street Car Park, Level 01 Lodge Street Pay Machines #2
",358444.99,173062.82,51.454530661903014,-2.598130344040009,101,2
358451.41,173057.539999999,313,"Trenchard Street Car Park, Level 01 Lodge Street Pedestrian Entrance",358451.41,173057.54,51.45448365501117,-2.5980373214988113,101,2
358405.19,173039.01,314,"Trenchard Street Car Park, Level 00/01 Frogmore Street Stairwell
",358405.19,173039.01,51.454313636793565,-2.598700378907557,101,2
358408.0,173037.0,315,"Trenchard Street Car Park, Level -02/-01 Frogmore Street Stairwell
",358408.0,173037.0,51.45429576920252,-2.598659698757053,101,2
358409.0,173034.0,316,"Trenchard Street Car Park, Level -01/00 Frogmore Street Stairwell
",358409.0,173034.0,51.45426886642932,-2.598644953120086,101,2
358385.34,173084.109999999,317,"Trenchard Street Car Park, Level 11 Park Row Stairwell block
",358385.34,173084.11,51.454717720692805,-2.598991383398966,101,2
358400.03,173105.01,318,"Trenchard Street Car Park, Level 08 Park Row Vehicle Exit
",358400.03,173105.01,51.45490673518527,-2.5987824103309873,101,2
358420.0,173035.0,319,"Trenchard Street Car Park, Level 06 Trenchard Street Stairs Facing Car Park Right





",358420.0,173035.0,51.454278666730126,-2.598486750201824,101,2
358420.0,173037.0,320,"Trenchard Street Car Park, Level 07 Entrance to Frogmore Street Stairs





",358420.0,173037.0,51.454296650902585,-2.598486985376756,101,2
358420.0,173037.0,321,"Trenchard Street Car Park, Level 08 Entrance to Frogmore Street Stairs






",358420.0,173037.0,51.454296650902585,-2.598486985376756,101,2
358410.0,173086.0,322,"Trenchard Street Car Park, Level 08 Park Row Vehicle Exit & Office PANO







",358410.0,173086.0,51.454736528366375,-2.5986366764416653,101,2
358410.0,173086.0,323,"Trenchard Street Car Park, Level 08 Park Row Vehicle Exit & Toilet PANO







",358410.0,173086.0,51.454736528366375,-2.5986366764416653,101,2
358410.0,173086.0,324,"Trenchard Street Car Park, Level 08 Park Row Vehicle Exit Facing Park Row Stairs & Ramp PANO








",358410.0,173086.0,51.454736528366375,-2.5986366764416653,101,2
358410.0,173086.0,325,"Trenchard Street Car Park, Level 08 Park Row Vehicle Exit Facing Lodge Street Stairwell PANO









",358410.0,173086.0,51.454736528366375,-2.5986366764416653,101,2
358420.0,173037.0,326,"Trenchard Street Car Park, Level 09 Entrance to Frogmore Street Stairs







",358420.0,173037.0,51.454296650902585,-2.598486985376756,101,2
358420.0,173086.0,327,"Trenchard Street Car Park, Level 10 Entrance to Frogmore Street Stairs








",358420.0,173086.0,51.454737263110275,-2.598492747238695,101,2
358444.0,173065.0,328,"Trenchard Street Car Park, Level 02 Lodge Street Stairwell
",358444.0,173065.0,51.45455019196385,-2.5981448491644463,101,2
358409.03,173043.09,329,"Trenchard Street Car Park, Level 01 Park Row Far Corner
",358409.03,173043.09,51.45435060669497,-2.5986455904903147,101,2
358413.0,173045.0,330,"Trenchard Street Car Park, Level 01 Park Row Far Corner Entrance to Stairwell

",358413.0,173045.0,51.454368073296415,-2.5985886757101615,101,2
358436.0,173009.0,331,"Trenchard Street Car Park, Level 02 Frogmore Street Far Corner Parking Bays


",358436.0,173009.0,51.45404604767691,-2.598253409695838,101,2
358464.0,173035.0,332,"Trenchard Street Car Park, Level 03 Parking Bays



",358464.0,173035.0,51.45428189745185,-2.5978534679811798,4,2
358412.0,173046.0,333,"Trenchard Street Car Park, Level 03 Park Row/Frogmore Stairwell/Parking Bays




",358412.0,173046.0,51.454376991904475,-2.598603186125045,101,2
358412.0,173046.0,334,"Trenchard Street Car Park, Level 04 Park Row Stairs/Corner





",358412.0,173046.0,51.454376991904475,-2.598603186125045,101,2
358437.0,173063.0,335,"Trenchard Street Car Park, Level 05 Entry/Exit PanoVu
",358437.0,173063.0,51.454531693789434,-2.598245364119551,101,2
358437.0,173063.0,336,"Trenchard Street Car Park, Level 05 Entrance to Frogmore Street Stairs

",358437.0,173063.0,51.454531693789434,-2.598245364119551,101,2
358437.0,173063.0,337,"Trenchard Street Car Park, Level 05 Left Hand Side PanoVu

",358437.0,173063.0,51.454531693789434,-2.598245364119551,101,2
358437.0,173063.0,338,"Trenchard Street Car Park, Level 05 Right Hand Side PanoVu


",358437.0,173063.0,51.454531693789434,-2.598245364119551,101,2
358420.0,173037.0,339,"Trenchard Street Car Park, Level 06 Entrance to Frogmore Street Stairs



",358420.0,173037.0,51.454296650902585,-2.598486985376756,101,2
358451.0,173053.0,340,"Trenchard Street Car Park, Level 06 Trenchard Street Stairs Facing Car Park Left




",358451.0,173053.0,51.4544428008396,-2.5980426891095525,101,2
360750.0,175345.0,341,Muller Rd/ Glenfrome Rd - Street Lighting Column 64,360750.0,175345.0,51.47521684822899,-2.565207981115308,47,1
361109.0,175201.0,342,"Junction 2, M32, West - Street Lighting Column 77",361109.0,175201.0,51.473946783992695,-2.5600227188160183,47,1
361205.58,175247.550000001,343,M32 Jtn 2 Roundabout (East),361205.58,175247.55,51.47437199987943,-2.5586371699269135,47,1
359673.0,176780.0,344,Muller Road/ Filton Avenue - Street Lighting Column 8,359673.0,176780.0,51.488044704239215,-2.580880065797606,56,1
359861.4,176409.609999999,345,Muller Road/Downend Road,359861.4,176409.61,51.48472753990263,-2.57812433333253,56,1
359489.72,176899.949999999,346,Gloucester Road/Muller Road,359489.72,176899.95,51.4891101973535,-2.583533698174155,56,1
359895.0,169670.0,347,Newquay Rd (Lower) - Street Lighting Column 025,359895.0,169670.0,51.42412654087029,-2.576876023866984,51,2
359886.0,169869.0,348,Newquay Rd/ Ilminster Rd - Street Lighting Column 020,359886.0,169869.0,51.4259153447546,-2.5770280109845896,51,2
359389.0,169940.0,349,DEPLOYABLE CAMERA - Jnc Newquay Road/Cossington Road,359389.0,169940.0,51.4265183806438,-2.5841849527875196,51,2
362178.55,170430.42,350,Bath Road/West Town Lane,362178.55,170430.42,51.43112143296389,-2.5441119645822297,21,0
361334.72,171143.18,351,adj t066,361334.72,171143.18,51.437473731929735,-2.5563288223298026,22,0
361437.22,171034.380000001,352,by SIGN T087 across from C085,361437.22,171034.38,51.43650237134497,-2.5548422395352324,22,0
362507.98,170218.380000001,353,next to C110,362507.98,170218.38,51.42923662345412,-2.539350450930911,21,0
362944.07,170063.66,354,Bath Road Park and Ride,362944.07,170063.66,51.427874039883896,-2.5330610774811966,21,0
362148.73,170524.18,355,Bath Rd/ Brisington Hill - Street Lighting Column 13,362148.73,170524.18,51.43196255034184,-2.54455096741267,21,0
362380.79,170263.43,356,Flowers Hill,362380.79,170263.43,51.42963329062451,-2.5411848714749814,21,0
360995.0,171623.0,357,Bath Road/Arnos Vale,360995.0,171623.0,51.44176505810423,-2.561269457038313,36,0
364166.82,169700.0,358,Hicks Gate Gyratory,364166.82,169700.0,51.42468257652702,-2.5154354241897963,21,0
362631.67,170183.279999999,359,Bath Road/Emery Road,362631.67,170183.28,51.42892916918793,-2.5375674591893267,21,0
361163.03,171550.93,360,Bath Road/Sandy Park Road,361163.03,171550.93,51.44112854218511,-2.558843773447636,22,0
358278.0,171562.0,361,SS4 Camera. Jnc North Street and Cannon Street. SL Column 1.,358278.0,171562.0,51.44102286366656,-2.600356792472158,4,2
359381.98,169624.58,362,Filwood Broadway/Hartcliffe Road,359381.98,169624.58,51.42368157213425,-2.5842497585788164,51,2
359421.01,174083.220000001,363,City Road/Dalrymple Road,359421.01,174083.22,51.46377702152692,-2.5841997301983164,56,1
359101.0,173852.0,364,Stokes Croft/ City Rd Junction,359101.0,173852.0,51.46167482907959,-2.5887797712220224,12,2
360913.97,169812.91,365,Wells Road/West Town Lane,360913.97,169812.91,51.42548282361515,-2.562235552599681,36,0
357006.0,179088.0,366,Crow Lane Column 19,357006.0,179088.0,51.50860165859461,-2.619575185638624,63,1
359671.62,174061.65,367,"Ludlow Close, St Paul's",359671.62,174061.65,51.463600980179564,-2.5805895352366663,56,1
360545.9,173737.02,368,Pountney Drive Camera 05,360545.9,173737.02,51.460743507722555,-2.5679673547395034,23,0
360545.9,173737.02,369,Pountney Drive Camera 04,360545.9,173737.02,51.460743507722555,-2.5679673547395034,23,0
360545.9,173737.02,370,Pountney Drive Camera 03,360545.9,173737.02,51.460743507722555,-2.5679673547395034,23,0
360506.5,173735.550000001,371,Pountney Drive 1st Floor Far End,360506.5,173735.55,51.46072754078653,-2.5685343490374564,23,0
360506.5,173735.550000001,372,Pountney Drive 2nd Floor Far End,360506.5,173735.55,51.46072754078653,-2.5685343490374564,23,0
360503.46,173711.66,373,"Lansdowne Court, Lift #2",360503.46,173711.66,51.460512506753766,-2.568575440094617,23,0
360503.46,173711.66,374,"Lansdowne Court, Lift #1",360503.46,173711.66,51.460512506753766,-2.568575440094617,23,0
360534.06,173653.140000001,375,"Pountney Drive Upper, Door Panel (34-42)",360534.06,173653.14,51.459988422579976,-2.5681284251586662,23,0
360548.91,173740.0,376,Pountney Drive Lower Door Panel,360548.91,173740.0,51.460770514118,-2.5679243587205267,23,0
360503.46,173711.66,377,"Lansdowne Court, Laundry (Internal)",360503.46,173711.66,51.460512506753766,-2.568575440094617,23,0
360503.46,173711.66,378,"Lansdowne Court, Bridge Entrance (Internal)",360503.46,173711.66,51.460512506753766,-2.568575440094617,23,0
360503.46,173711.66,379,"Lansdowne Court, Main entrance Lobby (Internal)",360503.46,173711.66,51.460512506753766,-2.568575440094617,23,0
360503.46,173711.66,380,"Lansdowne Court, Main Entrance Door Panel",360503.46,173711.66,51.460512506753766,-2.568575440094617,23,0
360503.46,173711.66,381,"Lansdowne Court, Lift Lobby, Far (Internal)",360503.46,173711.66,51.460512506753766,-2.568575440094617,23,0
360551.03,173716.189999999,382,"Lansdowne Court, Car Park PTZ",360551.03,173716.19,51.46055655941397,-2.567891184293927,23,0
360551.03,173716.189999999,383,"Lansdowne Court, Rear Entrance (External Fixed) ",360551.03,173716.19,51.46055655941397,-2.567891184293927,23,0
360587.96,173678.189999999,384,"Lansdowne Court, Car Park (H5CP), PanoVu #1 - Cabinet",360587.96,173678.19,51.460217431968516,-2.5673553463663685,23,0
360587.96,173678.189999999,385,"Lansdowne Court, Car Park (H5CP), PanoVu #2 - Footpath",360587.96,173678.19,51.460217431968516,-2.5673553463663685,23,0
360587.96,173678.189999999,386,"Lansdowne Court, Car Park (H5CP), PanoVu #3 - Car Park South",360587.96,173678.19,51.460217431968516,-2.5673553463663685,23,0
360587.96,173678.189999999,387,"Lansdowne Court, Car Park (H5CP), PanoVu #4 - Car Park Overview",360587.96,173678.19,51.460217431968516,-2.5673553463663685,23,0
360540.65,173695.689999999,388,"Lansdowne Court, Car Park (H8CP), PanoVu #1 - Bike Storage/Seating area",360540.65,173695.69,51.460371497106934,-2.5680383142003285,23,0
360540.65,173695.689999999,389,"Lansdowne Court, Car Park (H8CP), PanoVu #2 - Entrance road/Car Park South",360540.65,173695.69,51.460371497106934,-2.5680383142003285,23,0
360540.65,173695.689999999,390,"Lansdowne Court, Car Park (H8CP), PanoVu #3 - Car Park North",360540.65,173695.69,51.460371497106934,-2.5680383142003285,23,0
360540.65,173695.689999999,391,"Lansdowne Court, Car Park (H8CP), PanoVu #4 - Rear Entrance Car Park/Access Road",360540.65,173695.69,51.460371497106934,-2.5680383142003285,23,0
358536.0,171786.01,392,SS4 Camera. Dean Crescent. SL Column 1 - DEPLOYABLE 3G CAMERA,358536.0,171786.01,51.443056136583806,-2.596670779240183,4,2
358838.7,173372.789999999,393,Lewin's Mead,358838.7,173372.79,51.45734671072825,-2.5924998128016954,2,2
359137.3,172815.560000001,394,Attached to column 5,359137.3,172815.56,51.452357680833735,-2.588137439215341,50,2
359437.0,172491.0,395,Adj ICO29,359437.0,172491.0,51.44946075656958,-2.5837868708628196,51,2
359167.91,172784.57,396,Victoria Street/Counterslip,359167.91,172784.57,51.45208122441236,-2.58769331590144,50,2
360369.51,177846.109999999,397,adj entrance to Beatrix Place,360369.51,177846.11,51.49768049858871,-2.5709676538176596,56,1
359456.77,176591.01,398,Gloucester Road/Filton Avenue,359456.77,176591.01,51.48632982858238,-2.583972812684929,56,1
359411.64,169517.24,399,Filwood Broadway,359411.64,169517.24,51.42271847936773,-2.5838108540463853,51,2
359388.0,169526.0,400,Creswicke Road mounted to street lighting column 13,359388.0,169526.0,51.4227955568006,-2.584151870020551,51,2
359090.07,173860.699999999,401,On Col.10,359090.07,173860.7,51.461752270137524,-2.5889381169240333,12,2
359121.0,173947.0,402,Jamaica Street/ Stokes Croft,359121.0,173947.0,51.46253052292537,-2.5885028560800567,12,2
359130.6,174071.880000001,403,Stokes Croft/Ashley Road,359130.6,174071.88,51.46365414850955,-2.5883791009551924,12,2
358462.07,168929.050000001,404,Att Col 50,358462.07,168929.05,51.417360577120554,-2.597399438852302,51,2
358355.16,169039.890000001,405,Front of pavement near P45,358355.16,169039.89,51.418349420171175,-2.598949957043382,51,2
358041.84,170385.220000001,406,Parson Street/Hartcliffe Way,358041.84,170385.22,51.430423683302514,-2.6036153198775525,4,2
358065.55,169769.689999999,407,Hartcliffe Way opposite Bristol Waste - Column 20.,358065.55,169769.69,51.424890519783915,-2.6032013614625718,4,2
356974.09,177637.42,408,On Col 24 Falcondale Road,356974.09,177637.42,51.49555564711441,-2.6198580152108057,63,1
357080.72,177728.27,409,opp 007,357080.72,177728.27,51.496380677081085,-2.6183329868907324,63,1
356941.04,177490.0,410,On Col.21 Falcondale Rd,356941.04,177490.0,51.49422753125387,-2.620316130698023,63,1
357853.02,173184.710000001,411,Triangle/Berkley Place,357853.02,173184.71,51.455582933026506,-2.6066650014286776,104,2
357768.84,173146.59,412,"West End Car Park, Level 0 Pedestrian Entrance",357768.84,173146.59,51.45523388025168,-2.6078720649114984,104,2
357756.79,173135.68,413,"West End Car Park, Level 0 Vehicle Entrance",357756.79,173135.68,51.4551348775112,-2.608044197774722,104,2
357743.08,173157.15,414,"West End Car Park, Lift (Right)",357743.08,173157.15,51.45532691376679,-2.6082440919192726,104,2
357743.08,173157.15,415,"West End Car Park, Lift (Centre)",357743.08,173157.15,51.45532691376679,-2.6082440919192726,104,2
357743.08,173157.15,416,"West End Car Park, Lift (Left)",357743.08,173157.15,51.45532691376679,-2.6082440919192726,104,2
357724.04,173115.83,417,"West End Car Park, Level 7B Roof Parking Area on Front Stairwell",357724.04,173115.83,51.45495393959793,-2.608513195876467,104,2
357756.12,173187.85,418,"West End Car Park, Level 6A Roof Parking Area",357756.12,173187.85,51.45560394372903,-2.608060073968042,104,2
357757.14,173143.689999999,419,"West End Car Park, Level 6B Main Parking Area #1",357757.14,173143.69,51.45520693010777,-2.6080401171566443,104,2
357770.65,173180.390000001,420,"West End Car Park, Level 5A Parking Area Upper End",357770.65,173180.39,51.455537947240366,-2.6078500502659563,104,2
357757.14,173143.689999999,421,"West End Car Park, Level 5B Main Parking Area",357757.14,173143.69,51.45520693010777,-2.6080401171566443,104,2
357770.65,173180.390000001,422,"West End Car Park, Level 4A Parking Area Upper End",357770.65,173180.39,51.455537947240366,-2.6078500502659563,104,2
357757.14,173143.689999999,423,"West End Car Park, Level 4B Main Parking Area",357757.14,173143.69,51.45520693010777,-2.6080401171566443,104,2
357770.65,173180.390000001,424,"West End Car Park, Level 3A Parking Area Upper End",357770.65,173180.39,51.455537947240366,-2.6078500502659563,104,2
357757.14,173143.689999999,425,"West End Car Park, Level 3B Main Parking Area",357757.14,173143.69,51.45520693010777,-2.6080401171566443,104,2
357770.65,173180.390000001,426,"West End Car Park, Level 2A Parking Area Upper End",357770.65,173180.39,51.455537947240366,-2.6078500502659563,104,2
357757.14,173143.689999999,427,"West End Car Park, Level 2B Main Parking Area",357757.14,173143.69,51.45520693010777,-2.6080401171566443,104,2
357769.01,173167.720000001,428,"West End Car Park, Level 2B Parking Area Opposite to Bridge Entrance/Exit",357769.01,173167.72,51.45542389535686,-2.607872141766134,104,2
357770.65,173180.390000001,429,"West End Car Park, Level 1A Parking Area Upper End",357770.65,173180.39,51.455537947240366,-2.6078500502659563,104,2
357757.14,173143.689999999,430,"West End Car Park, Level 1B Main Parking Area",357757.14,173143.69,51.45520693010777,-2.6080401171566443,104,2
357737.35,173161.76,431,"West End Car Park, Level 0 Vehicle Entry/Exit Ramp",357737.35,173161.76,51.45536793935315,-2.6083271152791205,104,2
357746.67,173154.789999999,432,"West End Car Park, Level 7B Stairs and Lift Lobby",357746.67,173154.79,51.455305960514075,-2.608192138744108,104,2
357746.67,173154.789999999,433,"West End Car Park, Level 6A Stairs and Lift Lobby",357746.67,173154.79,51.455305960514075,-2.608192138744108,104,2
357723.06,173115.279999999,434,"West End Car Park, Level 6B Outside Front Stairwell Entrance",357723.06,173115.28,51.45494892075752,-2.608527235219782,104,2
357746.67,173154.789999999,435,"West End Car Park, Level 6B Stairs and Lift Lobby",357746.67,173154.79,51.455305960514075,-2.608192138744108,104,2
357746.67,173154.789999999,436,"West End Car Park, Level 5A Stairs and Lift Lobby",357746.67,173154.79,51.455305960514075,-2.608192138744108,104,2
357723.06,173115.279999999,437,"West End Car Park, Level 5B Outside front Stairwell Entrance",357723.06,173115.28,51.45494892075752,-2.608527235219782,104,2
357746.67,173154.789999999,438,"West End Car Park, Level 5B Stairs and Lift Lobby",357746.67,173154.79,51.455305960514075,-2.608192138744108,104,2
357746.67,173154.789999999,439,"West End Car Park, Level 4A Stairs and Lift Lobby",357746.67,173154.79,51.455305960514075,-2.608192138744108,104,2
357723.06,173115.279999999,440,"West End Car Park, Level 4B Outside Front Stairwell Entrance",357723.06,173115.28,51.45494892075752,-2.608527235219782,104,2
357746.67,173154.789999999,441,"West End Car Park, Level 4B Stairs and Lift Lobby",357746.67,173154.79,51.455305960514075,-2.608192138744108,104,2
357746.67,173154.789999999,442,"West End Car Park, Level 3A Stairs and Lift Lobby",357746.67,173154.79,51.455305960514075,-2.608192138744108,104,2
357723.06,173115.279999999,443,"West End Car Park, Level 3B Outside Front Stairwell Entrance",357723.06,173115.28,51.45494892075752,-2.608527235219782,104,2
357746.67,173154.789999999,444,"West End Car Park, Level 3B Stairs and Lift Lobby",357746.67,173154.79,51.455305960514075,-2.608192138744108,104,2
357746.67,173154.789999999,445,"West End Car Park, Level 2A Stairs and Lift Lobby",357746.67,173154.79,51.455305960514075,-2.608192138744108,104,2
357723.06,173115.279999999,446,"West End Car Park, Level 2B Outside Front Stairwell Entrance",357723.06,173115.28,51.45494892075752,-2.608527235219782,104,2
357746.67,173154.789999999,447,"West End Car Park, Level 2B Stairs and Lift Lobby",357746.67,173154.79,51.455305960514075,-2.608192138744108,104,2
357751.69,173157.189999999,448,"West End Car Park, Level 2B Pay Station",357751.69,173157.19,51.45532791623338,-2.6081201722758025,104,2
357782.38,173179.4,449,"West End Car Park, Level 2B Entry Exit Bridge Right",357782.38,173179.4,51.455529920203794,-2.6076811004349048,104,2
357782.38,173179.4,450,"West End Car Park, Level 2B Entry Exit Bridge Left",357782.38,173179.4,51.455529920203794,-2.6076811004349048,104,2
357746.67,173154.789999999,451,"West End Car Park, Level 1A Stairs and Lift Lobby",357746.67,173154.79,51.455305960514075,-2.608192138744108,104,2
357723.06,173115.279999999,452,"West End Car Park, Level 1B Outside Front Stairwell Entrance",357723.06,173115.28,51.45494892075752,-2.608527235219782,104,2
357746.67,173154.789999999,453,"West End Car Park, Level 1B Stairs and Lift Lobby",357746.67,173154.79,51.455305960514075,-2.608192138744108,104,2
357774.07,173174.02,454,"West End Car Park, Level 1B Vehicle Entrance",357774.07,173174.02,51.45548092293397,-2.6078000649794184,104,2
357769.76,173174.390000001,455,"West End Car Park, Level 1 Vehicle Exit",357769.76,173174.39,51.45548392841929,-2.607862143559146,104,2
357764.77,173151.08,456,"West End Car Park, Level 0 Lift Lobby",357764.77,173151.08,51.45527395093483,-2.6079311809495804,104,2
357764.77,173151.08,457,"West End Car Park, Level 0 POF",357764.77,173151.08,51.45527395093483,-2.6079311809495804,104,2
357752.31,173131.27,458,"West End Car Park, Level 0 Vehicle Exit",357752.31,173131.27,51.4550948880891,-2.608108151592634,104,2
364125.0,175767.0,459,"Ledbury Road, Laundry
",364125.0,175767.0,51.479235700701146,-2.516652390009095,32,0
364173.0,175734.0,460,"Ledbury Road PTZ #5 (Rear of Block #1)
",364173.0,175734.0,51.47894200209296,-2.515957801787248,32,0
364128.0,175775.0,461,"Ledbury Road PTZ #6 (Vehicle Gates Block #2)

",364128.0,175775.0,51.47930782840086,-2.5166100002517564,32,0
364108.0,175718.0,462,"Ledbury Road PTZ #8 (Rear of Block #3)


",364108.0,175718.0,51.478794005468174,-2.5168922234201636,32,0
364089.0,175747.0,463,"Ledbury Road PTZ #9 (Top Rear of Block #3)



",364089.0,175747.0,51.47905357222384,-2.5171687858469967,32,0
364209.0,175745.0,464,"Ledbury Road Block 1 Alleyway
",364209.0,175745.0,51.47904319567686,-2.5154404900923897,32,0
364158.0,175757.0,465,"Ledbury Road Block 2 Alleyway
",364158.0,175757.0,51.47914787156056,-2.516176147505065,32,0
364108.0,175776.0,466,"Ledbury Road Block 4 Alleyway
",364108.0,175776.0,51.47931555149857,-2.5168981189589372,32,0
364080.75,175774.060000001,467,Ledbury Road Block 04 Front Door External,364080.75,175774.06,51.47929637643155,-2.5172903448961654,32,0
364094.41,175720.58,468,Ledbury Road Block 03 Rear Door External,364094.41,175720.58,51.47881634255044,-2.517088191151266,32,0
364099.49,175723.32,469,Ledbury Road Block 03 2nd Floor Stairs,364099.49,175723.32,51.478841303633246,-2.5170153141826495,32,0
364099.49,175723.32,470,Ledbury Road Block 03 1st/2nd Floor Stairs,364099.49,175723.32,51.478841303633246,-2.5170153141826495,32,0
364099.49,175723.32,471,Ledbury Road Block 03 Ground/1st Floor Stairs,364099.49,175723.32,51.478841303633246,-2.5170153141826495,32,0
364099.49,175723.32,472,Ledbury Road Block 03 Ground Floor Stairs,364099.49,175723.32,51.478841303633246,-2.5170153141826495,32,0
364131.16,175751.9,473,Ledbury Road Block 02 3rd Floor Stairs,364131.16,175751.9,51.47910030964955,-2.5165621469986963,32,0
364131.16,175751.9,474,Ledbury Road Block 02 2nd/3rd Floor Stairs,364131.16,175751.9,51.47910030964955,-2.5165621469986963,32,0
364131.16,175751.9,475,Ledbury Road Block 02 1st/2nd Floor Stairs,364131.16,175751.9,51.47910030964955,-2.5165621469986963,32,0
364131.16,175751.9,476,Ledbury Road Block 02 Ground/1st Floor Stairs,364131.16,175751.9,51.47910030964955,-2.5165621469986963,32,0
364131.16,175751.9,477,Ledbury Road Block 02 Ground Floor Stairs,364131.16,175751.9,51.47910030964955,-2.5165621469986963,32,0
364183.68,175735.51,478,Ledbury Road Block 01 Rear Door External,364183.68,175735.51,51.47895625681426,-2.515804155046768,32,0
364188.29,175738.6,479,Ledbury Road Block 01 2nd Floor Stairs,364188.29,175738.6,51.478984334597975,-2.5157380809995806,32,0
364188.29,175738.6,480,Ledbury Road Block 01 1st/2nd Floor Stairs,364188.29,175738.6,51.478984334597975,-2.5157380809995806,32,0
364188.29,175738.6,481,Ledbury Road Block 01 Ground/1st Floor Stairs,364188.29,175738.6,51.478984334597975,-2.5157380809995806,32,0
364188.29,175738.6,482,Ledbury Road Block 01 Ground Floor Stairs,364188.29,175738.6,51.478984334597975,-2.5157380809995806,32,0
364121.2,175747.970000001,483,Ledbury Road PTZ #3 (Rear of Block 02),364121.2,175747.97,51.47906433855849,-2.5167051795193203,32,0
364136.86,175753.310000001,484,Ledbury Road PTZ #2 (Front of Block 02),364136.86,175753.31,51.47911335013641,-2.5164802057128406,32,0
364192.05,175739.68,485,Ledbury Road PTZ #1 (Front of Block 01),364192.05,175739.68,51.478994284250184,-2.5156840436873744,32,0
359788.62,173202.390000001,486,Att to Column 15,359788.62,173202.39,51.45588274742289,-2.5788074881697205,51,2
359798.87,173215.390000001,487,Old Market/ West Street,359798.87,173215.39,51.4560003731003,-2.5786614346033825,51,2
358738.47,173255.83,488,Rupert Street/Lewins Mead,358738.47,173255.83,51.45628769704854,-2.5939288490748322,12,2
359580.53,174094.960000001,489,"Carr House Lower Door (External), Paul's",359580.53,174094.96,51.46389400705817,-2.581904653915627,56,1
359550.49,174134.02,490,"Carr House Upper PTZ, St Paul's",359550.49,174134.02,51.46424309157322,-2.582341575653105,56,1
359550.17,174129.130000001,491,"Carr House Upper Door (External), St Paul's",359550.17,174129.13,51.46419909734077,-2.582345622663548,56,1
358210.0,178389.0,492,Greystoke Avenue/ Southmead Library (Aldi),358210.0,178389.0,51.502406602665936,-2.6021428522699144,63,1
358288.95,178419.640000001,493,"Arneside Road (West), (Southmead)",358288.95,178419.64,51.50268795157056,-2.6010089709020936,63,1
358311.31,178437.699999999,494,"Arneside Road (East), (Southmead)",358311.31,178437.7,51.50285199747642,-2.6006889428278237,63,1
358215.0,172996.0,495,Park Street (Middle) - Street Lighting Column 006,358215.0,172996.0,51.45391287823073,-2.601432659614813,104,2
358854.29,167410.560000001,496,Redwood House Front Door PTZ,358854.29,167410.56,51.40373467670236,-2.591582600756043,51,2
358901.97,167448.550000001,497,Redwood House Rear Door (External Static),358901.97,167448.55,51.40407974743473,-2.5909015115698812,51,2
358854.29,167410.560000001,498,Redwood House Front Door (External Static),358854.29,167410.56,51.40373467670236,-2.591582600756043,51,2
358873.54,167425.09,499,Redwood House Rear Lobby,358873.54,167425.09,51.40386672959076,-2.5913075299784616,51,2
358873.54,167425.09,500,Redwood House Lift 02,358873.54,167425.09,51.40386672959076,-2.5913075299784616,51,2
358873.54,167425.09,501,Redwood House Lift 01,358873.54,167425.09,51.40386672959076,-2.5913075299784616,51,2
358873.54,167425.09,502,Redwood House Lift Lobby,358873.54,167425.09,51.40386672959076,-2.5913075299784616,51,2
358873.54,167425.09,503,Redwood House Front Lobby,358873.54,167425.09,51.40386672959076,-2.5913075299784616,51,2
358870.04,167422.34,504,Redwood House Front Door Panel,358870.04,167422.34,51.40384174723266,-2.5913575304184766,51,2
358901.97,167448.550000001,505,Chestnut House Front Door (External Static),358901.97,167448.55,51.40407974743473,-2.5909015115698812,51,2
358915.78,167565.550000001,506,Rowan House Front Door Panel,358915.78,167565.55,51.405132832767855,-2.5907165196048196,51,2
358874.11,167427.199999999,507,Redwood House Laundry,358874.11,167427.2,51.40388574442439,-2.591299579796914,51,2
358875.42,167425.960000001,508,Hartcliffe Redwood House Ground Floor Stairwell,358875.42,167425.96,51.403874689142086,-2.591280602170918,51,2
358387.0,172938.0,509,Frogmore Street outside The Hatchet,358387.0,172938.0,51.4534040090882,-2.5989502970478684,101,2
356857.66,174137.359999999,510,On Col 41,356857.66,174137.36,51.46407420083324,-2.621107616733904,48,1
356653.45,173990.6,511,On Col 34,356653.45,173990.6,51.46273892248903,-2.624029381393734,48,1
358494.67,172833.640000001,512,Denmark Street,358494.67,172833.64,51.452473500265874,-2.5973884077623315,4,2
358387.96,172937.5,513,Denmark Avenue (Hatchet),358387.96,172937.5,51.45339958362352,-2.598936421411672,101,2
359653.55,174130.189999999,514,"Grosvenor Road/Winkworth Place PTZ, St Paul's",359653.55,174130.19,51.46421601045252,-2.580857491209153,56,1
359509.0,173984.0,515,"Grosvenor Rd, St Pauls.",359509.0,173984.0,51.46289112941595,-2.5829216760211304,56,1
359653.55,174130.189999999,516,"REDEPLOYABLE - Grosvenor Road/Winkworth Place PTZ, St Paul's",359653.55,174130.19,51.46421601045252,-2.580857491209153,56,1
360863.57,173036.109999999,517,Harwood House Rear Car Park PTZ,360863.57,173036.11,51.454462889120045,-2.5633169381105456,26,0
358709.98,169283.43,518,Inns Court,358709.98,169283.43,51.42056533058376,-2.593875494108732,51,2
360602.87,173719.560000001,519,"Easton Road, Door Panel (123-147 Odds)",360602.87,173719.56,51.46059047452604,-2.5671453318686828,23,0
360602.87,173719.82,520,Easton Road Laundry (Internal),360602.87,173719.82,51.46059281247897,-2.567145360846977,23,0
358461.2,169150.109999999,521,Novers Lane,358461.2,169150.11,51.41934831653073,-2.5974378649328798,51,2
357687.0,168493.0,522,MetroBus Whitchurch Lane/ SBL Junction - Street Lighting Column ?,357687.0,168493.0,51.41338222138791,-2.6084937823318675,4,2
357676.98,168485.73,523,Whitchurch Road/Anton Bantock Way,357676.98,168485.73,51.41331610049707,-2.6086370008843462,4,2
357526.0,168468.0,524,Cater Road - Camera 19 -WEC pole - Whitchurch Lane ,357526.0,168468.0,51.41314537654063,-2.610805950353687,4,2
357526.0,168468.0,525,Cater Road - Camera 19 -WEC pole - Whitchurch Lane ,357526.0,168468.0,51.41314537654063,-2.610805950353687,4,2
357526.0,168468.0,526,Cater Road - Camera 19 -WEC pole - Whitchurch Lane ,357526.0,168468.0,51.41314537654063,-2.610805950353687,4,2
357688.0,168487.0,527,Cater Road - Camera 16 - Column 47 - Whitchurch Lane ,357688.0,168487.0,51.413328343242064,-2.6084786861725546,4,2
357688.0,168487.0,528,Cater Road - Camera 17 - Column 47 - Whitchurch Lane ,357688.0,168487.0,51.413328343242064,-2.6084786861725546,4,2
357688.0,168487.0,529,Cater Road - Camera 18 - Column 47 - Whitchurch Lane ,357688.0,168487.0,51.413328343242064,-2.6084786861725546,4,2
357526.0,168468.0,530,Cater Road - Camera 19 -WEC pole - Whitchurch Lane ,357526.0,168468.0,51.41314537654063,-2.610805950353687,4,2
360415.55,173843.029999999,531,"Twinnell House, Lift #2",360415.55,173843.03,51.46168765892955,-2.5698555998295873,23,0
360415.55,173843.029999999,532,"Twinnell House, Lift #1",360415.55,173843.03,51.46168765892955,-2.5698555998295873,23,0
360410.1,173838.960000001,533,"Twinnell House, Main entrance door panel",360410.1,173838.96,51.46165067970608,-2.5699335976913606,23,0
360415.55,173843.029999999,534,"Twinnell House, Laundry Lobby",360415.55,173843.03,51.46168765892955,-2.5698555998295873,23,0
360415.55,173843.029999999,535,"Twinnell House, Main entrance (internal)",360415.55,173843.03,51.46168765892955,-2.5698555998295873,23,0
360404.57,173841.560000001,536,"Twinnell House, Main entrance (external)",360404.57,173841.56,51.461673672276795,-2.570013494231132,23,0
360415.55,173843.029999999,537,"Twinnell House, Lift lobby",360415.55,173843.03,51.46168765892955,-2.5698555998295873,23,0
360418.03,173812.869999999,538,Wills Drive Door Panel,360418.03,173812.87,51.461416630048866,-2.5698165223426894,23,0
360415.55,173843.029999999,539,"Twinnell House, Laundry",360415.55,173843.03,51.46168765892955,-2.5698555998295873,23,0
360411.57,173822.26,540,"Twinnell House, Front Right PTZ",360411.57,173822.26,51.46150061413775,-2.569910566351934,23,0
357448.45,172468.789999999,541,On Col 14,357448.45,172468.79,51.44911506037359,-2.612401898619267,104,2
357573.79,172470.720000001,542,opp 009,357573.79,172470.72,51.44914182264063,-2.6105983471594643,104,2
357499.92,172456.73,543,Hotwells Road/Mardyke,357499.92,172456.73,51.44901048248897,-2.611659738754777,104,2
357825.04,172569.68,544,Jacobs Wells (Roundabout),357825.04,172569.68,51.450050453177916,-2.606994373779039,104,2
357318.0,172487.0,545,Hotwell Rd/ Spar - Street Lighting Column 20,357318.0,172487.0,51.44926898535851,-2.6142814165256616,104,2
357144.0,172549.1,546,Hotwells Gyratory North - Street Lighting Column 029,357144.0,172549.1,51.449814246502015,-2.616793001483505,104,2
356906.57,172496.439999999,547,Rose of Denmark Hotwell Road,356906.57,172496.44,51.44932269993638,-2.6202035159467427,48,1
357294.79,172491.710000001,548,Hotwells Road/ Pooles Wharf,357294.79,172491.71,51.4493095875336,-2.6146160039743713,104,2
359853.24,169141.039999999,549,Bamfield-Alverstoke,359853.24,169141.04,51.41936708512561,-2.5774167301498268,51,2
359874.48,167831.5,550,Bamfield (Upper),359874.48,167831.5,51.40759296544447,-2.576963008936039,51,2
360063.8,168682.9,551,Bamfield - mounted to SL22,360063.8,168682.9,51.41526228475794,-2.574336851888484,51,2
357277.7,179198.779999999,552,On Column 2,357277.7,179198.78,51.50961840304731,-2.615673459172574,63,1
358809.32,170944.470000001,553,Opp P045,358809.32,170944.47,51.43550885828542,-2.592639962864061,51,2
360829.76,174681.529999999,554,Stapleton Road/St Marks Road,360829.76,174681.53,51.469256380316416,-2.563985910278538,47,1
360634.27,174391.529999999,555,Stapleton Road/Warwick Road,360634.27,174391.53,51.46663509647014,-2.566768181550578,47,1
360549.05,174214.789999999,556,Stapleton Road/Kensington Park,360549.05,174214.79,51.4650398933982,-2.5679753404964902,23,0
360155.41,173607.949999999,557,"Stapleton Road William Hill PTZ, Easton",360155.41,173607.95,51.45955553374266,-2.573573861603304,23,0
360256.77,173722.82,558,"Stapleton Road/Clifden Place PTZ, Easton",360256.77,173722.82,51.4605955863594,-2.572127749688593,23,0
360474.25,174047.32,559,Stapleton Road/Lansdowne Road,360474.25,174047.32,51.46352876268556,-2.569033448777692,23,0
360909.16,174726.960000001,560,Stapleton Road/Robertson Road,360909.16,174726.96,51.46967038469458,-2.5628477691288047,47,1
360420.01,173871.470000001,561,"Twinnell House, Rear Left PTZ",360420.01,173871.47,51.461943706831114,-2.569794582041436,23,0
360407.08,173861.34,562,"Twinnell House, Front Left PTZ",360407.08,173861.34,51.46185171205392,-2.569979578025311,23,0
360788.1,174584.98,563,Stapleton Road/Robert Street,360788.1,174584.98,51.46838530509847,-2.564574997801641,47,1
360673.46,174465.07,564,Stapleton Road (Cotton and Sons),360673.46,174465.07,51.46729910244278,-2.5662121578043595,47,1
360165.0,173637.0,565,SS5 DEPLOYABLE CAMERA - Stapleton Road/Milsom Street. SL 5,360165.0,173637.0,51.45981742994081,-2.573439091925074,23,0
360220.0,173705.0,566,SS5 DEPLOYABLE CAMERA - Stapleton Road/Webb Street. SL 7,360220.0,173705.0,51.46043276307915,-2.57265504216408,23,0
360735.0,174528.0,567,Stapleton Road Opposite train station entrance. SL31,360735.0,174528.0,51.4678692510914,-2.5653331622431703,47,1
360735.0,174528.0,568,Stapleton Road Opposite train station entrance. SL31,360735.0,174528.0,51.4678692510914,-2.5653331622431703,47,1
359278.73,172157.18,569,Redcliffe Proctor House Rear PTZ,359278.73,172157.18,51.44644764534633,-2.5860261527557364,51,2
359301.84,172178.68,570,Redcliffe Proctor House Front PTZ,359301.84,172178.68,51.44664263766703,-2.585696065237777,51,2
359224.31,173647.939999999,571,Brunswick Square (Looks Down To Bellyfull Caf),359224.31,173647.94,51.45984880162159,-2.5869811679819255,5,2
359001.0,173827.0,572,Junction Jamaica Street and Lower Gay Street,359001.0,173827.0,51.4614427900101,-2.5902163839016294,12,2
359436.87,171995.529999999,573,York Road/St Luke's Road,359436.87,171995.53,51.44500542109182,-2.5837319285391795,51,2
359616.04,177260.41,574,Att C72,359616.04,177260.41,51.4923605127171,-2.581755465218017,56,1
359341.51,176243.92,575,Gloucester Road/Ashley Down Road,359341.51,176243.92,51.48320049682576,-2.5855929117530807,56,1
358494.0,172771.0,576,"College Green Ped Crossing, Junct Trinity St",358494.0,172771.0,51.45191018654057,-2.597390698861184,4,2
358305.0,172861.0,577,CITY HALL - Camera 5 - Door 4 (College Green),358305.0,172861.0,51.45270558390006,-2.6001214032246427,101,2
358320.0,172843.0,578,CITY HALL - Camera 6 - PTZ Main Ramp (Park Street),358320.0,172843.0,51.45254483109637,-2.5999033975946317,101,2
358312.0,172839.0,579,CITY HALL - Camera 7 - Main Ramp Barrier (Park Street),358312.0,172839.0,51.45250827360222,-2.60001806388876,101,2
358312.0,172838.0,580,CITY HALL - Camera 7a - Park Street entrance,358312.0,172838.0,51.45249928151578,-2.6000179460079944,101,2
358280.0,172806.0,581,CITY HALL - Camera 8 - PTZ Park Street ,358280.0,172806.0,51.45220917704535,-2.6004747217405706,101,2
358280.0,172787.0,582,CITY HALL - Camera 9 - Main Entrance to Building ,358280.0,172787.0,51.45203832740586,-2.6004724803359,101,2
358279.0,172784.0,583,CITY HALL - Camera 10 - Main Ramp front of building (Deanery Road side),358279.0,172784.0,51.452011277439894,-2.600486518490113,101,2
358269.0,172774.0,584,CITY HALL - Camera 11 - PTZ Main Ramp front of building (Deanery Road side),358269.0,172774.0,51.45192061941357,-2.600629259081785,101,2
358950.49,171996.050000001,585,Att to Column 1,358950.49,171996.05,51.44497504182715,-2.5907309410599306,14,2
358676.0,172012.0,586,Coronation Road/Dean Lane,358676.0,172012.0,51.445098498023945,-2.5946826776667318,13,2
360357.41,173763.52,587,"Laundry, Ashman Close",360357.41,173763.52,51.460968625177316,-2.5706836181357606,23,0
360359.56,173754.050000001,588,"1st Floor, Ashman Close",360359.56,173754.05,51.46088362041559,-2.5706516069715404,23,0
360337.28,173792.039999999,589,"Twinnell House, Car Park PTZ",360337.28,173792.04,51.46122366980924,-2.5709765887236324,23,0
360338.03,173790.58,590,Ashman Close Lower Door (External).,360338.03,173790.58,51.46121059388469,-2.570965628626005,23,0
360359.56,173754.050000001,591,Ashman Close 2nd Floor 2nd Cam (Internal),360359.56,173754.05,51.46088362041559,-2.5706516069715404,23,0
360359.56,173754.050000001,592,Ashman Close 2nd Floor 1st Cam (Internal),360359.56,173754.05,51.46088362041559,-2.5706516069715404,23,0
352253.72,177164.369999999,593,Portway A4,352253.72,177164.37,51.49092296861037,-2.6877935730937503,61,1
361758.08,173652.800000001,594,"Chalks Road Car Park, ANPR Entrance",361758.08,173652.8,51.46006940898141,-2.5505090060255493,32,0
361758.08,173652.800000001,595,"Chalks Road Car Park, Underneath RHS",361758.08,173652.8,51.46006940898141,-2.5505090060255493,32,0
358907.0,172985.0,596,"St Nicks Market - Front office door/office
",358907.0,172985.0,51.45386462948492,-2.5914716504506297,1,2
358884.0,172985.0,597,St Nicks Market - South Arcade entrance All Saints Lane,358884.0,172985.0,51.45386295915162,-2.5918026817188142,2,2
358903.0,172950.0,598,St Nicks Market - Covered Market All Saints Lane entrance - Stalls 81-94,358903.0,172950.0,51.45354961561265,-2.5915251534887047,1,2
358895.7,172960.810000001,599,St Nicks Market - Covered Market All Saints Lane Entrance - Stalls 66-80 ,358895.7,172960.81,51.45364629010349,-2.5916314757425973,1,2
358891.0,172968.0,600,St Nicks Market - Covered Market All Saints Lane entrance - Stalls 51-65,358891.0,172968.0,51.453710601945644,-2.5916999567884367,1,2
358895.0,172982.0,601,"St Nicks Market - Glass Arcade North PanoVu - 4167, 4169, 4170, 4195",358895.0,172982.0,51.453836781829075,-2.591644013696763,1,2
358895.0,172982.0,602,"St Nicks Market - Glass Arcade North PanoVu - 4167, 4169, 4170, 4195",358895.0,172982.0,51.453836781829075,-2.591644013696763,1,2
358895.0,172982.0,603,"St Nicks Market - Glass Arcade North PanoVu - 4167, 4169, 4170, 4195",358895.0,172982.0,51.453836781829075,-2.591644013696763,1,2
358895.0,172982.0,604,"St Nicks Market - Glass Arcade North PanoVu - 4167, 4169, 4170, 4195",358895.0,172982.0,51.453836781829075,-2.591644013696763,1,2
358892.0,172972.0,605,St Nicks Market - All Saints Lane By The Crown pub,358892.0,172972.0,51.45374664296825,-2.5916860291687183,1,2
358894.0,172973.0,606,St Nicks Market - All Saints Lane By The Crown pub (Rummer Store),358894.0,172973.0,51.45375578032105,-2.5916573601583104,1,2
358864.0,173013.0,607,St Nicks Market - Exchange - All Saints Entrance,358864.0,173013.0,51.45411328464786,-2.5920937922058163,2,2
361805.09,173612.970000001,608,"Chalks Road Car Park, Car Park Entrance",361805.09,173612.97,51.4597144264926,-2.549828006620145,32,0
361805.09,173612.970000001,609,"Chalks Road Car Park, Bottom PTZ",361805.09,173612.97,51.4597144264926,-2.549828006620145,32,0
361824.81,173564.99,610,Church Road/Chalks Road,361824.81,173564.99,51.459284313575125,-2.549538963498941,32,0
361781.13,173632.939999999,611,"Chalks Road Car Par, Underneath LHS",361781.13,173632.94,51.459892382076184,-2.5501750605216684,32,0
361781.13,173632.939999999,612,"Chalks Road Car Park, Front Right of Zedpods",361781.13,173632.94,51.459892382076184,-2.5501750605216684,32,0
361805.09,173612.970000001,613,"Chalks Road Car Park, Front Left Zedpods",361805.09,173612.97,51.4597144264926,-2.549828006620145,32,0
361805.09,173612.970000001,614,"Chalks Road Car Park, Far Right Of Building Zedpods",361805.09,173612.97,51.4597144264926,-2.549828006620145,32,0
361805.09,173612.970000001,615,"Chalks Road Car Park, Far Left Of Building Zedpods",361805.09,173612.97,51.4597144264926,-2.549828006620145,32,0
361758.0,173655.0,616,"Chalks Road Car Park, Street Light on island at the far end",361758.0,173655.0,51.46008918631134,-2.550510395607819,32,0
359424.04,173776.130000001,617,Portland Square (North),359424.04,173776.13,51.461015855753246,-2.584120856450124,50,2
361141.78,172953.57,618,"Barton House, Vehicle Gates (Static)",361141.78,172953.57,51.45373984634516,-2.5593036102324183,35,0
361162.56,172908.810000001,619,"Barton House, Marsh Lane PTZ",361162.56,172908.81,51.45333878396382,-2.5589996139205162,35,0
361141.78,172953.57,620,"Barton House, Vehicle Gate PTZ",361141.78,172953.57,51.45373984634516,-2.5593036102324183,35,0
358198.53,172709.17,621,"College Street Car park, Rear Right Upper Internal",358198.53,172709.17,51.45133246275068,-2.6016358026113835,104,2
358201.99,172715.26,622,"CAMERA 14 - College Street Car Park, Cycle Racks Upper/Left (above final exit arrow, looking down first corridor)",358201.99,172715.26,51.45138748005533,-2.6015867265795616,104,2
358191.19,172712.01,623,"College Street Car Park, Central Lower/Right Internal",358191.19,172712.01,51.451357458182024,-2.6017417744569453,104,2
358209.26,172712.529999999,624,"CAMERA 6 - College Street Car Park, Upper Right Rear Internal (looking towards permit bay 3 from opposite corner)",358209.26,172712.53,51.45136346844534,-2.601481775175446,104,2
358195.33,172717.09,625,"CAMERA 21 - College Street Car Park, Central Cycle Racks Middle (next to end of red pipe, looking up central walkway)",358195.33,172717.09,51.45140344374518,-2.6016827926717125,104,2
358271.0,172729.0,626,CITY HALL - Camera 12 - Exit (Deanery Road),358271.0,172729.0,51.451516122958125,-2.6005951654118817,101,2
358252.0,172713.0,627,CITY HALL - Camera 13 - Door 1 (Deanery Road),358252.0,172713.0,51.45137084856548,-2.6008667228512112,101,2
358581.76,173193.16,628,Colston Street (Christmas Steps),358581.76,173193.16,51.45571271599746,-2.5961770999416314,103,2
358553.5,172982.85,629,Colston Street/Pipe Lane,358553.5,172982.85,51.453819520999765,-2.596559201593705,4,2
358440.07,167438.630000001,630,Walwyn Gardens (External Static),358440.07,167438.63,51.40395687702214,-2.5975410942293555,51,2
357546.0,170449.859999999,631,cannot confirm bedminister rd jnct,357546.0,170449.86,51.430967989146666,-2.610755852890619,104,2
357420.23,170183.529999999,632,Cross Hands Bedminster Down,357420.23,170183.53,51.428563683039805,-2.612533081681245,104,2
357537.51,170457.039999999,633,Bedminster Road/Bedminster Down Road,357537.51,170457.04,51.43103191607734,-2.6108788461309733,104,2
357665.7,170617.43,634,Att C1,357665.7,170617.43,51.43248375434716,-2.609053953396761,104,2
359494.36,173557.369999999,635,Between 15 and 16,359494.36,173557.37,51.459053781560925,-2.583083537531787,50,2
359486.69,173571.75,636,next to 012,359486.69,173571.75,51.459182538952334,-2.5831955899394847,50,2
359244.86,173524.66,637,Bond Street/York Street,359244.86,173524.66,51.45874173622553,-2.586671147080511,5,2
359110.68,173549.1,638,St James Barton/Bond Street (Low Level),359110.68,173549.1,51.458951823692956,-2.588605388592461,1,2
358584.0,172774.0,639,Centre/ Queen Square end - Street Lighting Column (081A),358584.0,172774.0,51.45194375513719,-2.596095766831496,4,2
359605.63,174132.02,640,"Carr House/Winkworth Place PTZ, St Paul's (Carr House)",359605.63,174132.02,51.46422904678017,-2.5815475541340938,56,1
359062.3,173122.970000001,641,Wine Street/Union Street (Top),359062.3,173122.97,51.455116523577075,-2.58925244205563,5,2
358778.47,167703.35,642,"Oak House Front Door external dome
Already cleaned when upgraded",358778.47,167703.35,51.40636198750576,-2.59270669389391,51,2
361063.56,174798.189999999,643,Fishponds Road/East Park/Argyle Road,361063.56,174798.19,51.47032154221466,-2.560632612442479,47,1
361321.25,174914.34,644,Mayfield Primary School (East Park),361321.25,174914.34,51.47138365662323,-2.556935127507384,47,1
360359.0,176886.0,645,DEPLOYABLE CAMERA - Fly tipping - Lockleaze road jnc Wordsworth Road - mounted to lighting column 12,360359.0,176886.0,51.48904638496758,-2.5710111913126683,56,1
358827.57,173002.310000001,646,Corn Street/ Wine Street (Top end of St Nicholas Market),358827.57,173002.31,51.45401451025404,-2.5926168750512693,2,2
358847.0,173010.0,647,St Nicks Market - Corn Street Entrance to Exchange Hall,358847.0,173010.0,51.45408507255168,-2.5923381196598023,2,2
364073.57,175770.220000001,648,Ledbury Road Block 04 Rear Door External,364073.57,175770.22,51.47926139037528,-2.5173933522808034,32,0
360375.0,174247.0,649,Warwick Rd/ Waverley St/ Oxford Place (By Millpond Primary School),360375.0,174247.0,51.4653173662134,-2.5704846168104267,56,1
359783.33,177720.32,650,Filton Road/Monks Park Avenue,359783.33,177720.32,51.49650797669673,-2.579398111680379,56,1
359753.21,177675.619999999,651,opp 013,359753.21,177675.62,51.49610388776288,-2.579826924074367,56,1
359926.87,177038.859999999,652,between 008 and traffic lights,359926.87,177038.86,51.49039044378945,-2.577252854604369,56,1
360967.25,177035.949999999,653,Gainsborough Square (Lockleaze),360967.25,177035.95,51.490437075284035,-2.5622666605190476,47,1
358469.84,172225.689999999,654,"M Shed, Princes Wharf (North)",358469.84,172225.69,51.44700493514601,-2.5976743834527585,4,2
358605.12,172298.77,655,"M Shed, Princes Wharf (South)",358605.12,172298.77,51.447671985534015,-2.5957361887972294,4,2
358532.0,172224.0,656,M-Shed Rear-Centre-Left Ext,358532.0,172224.0,51.44699429497524,-2.596779672268778,4,2
358619.0,172273.0,657,"M-Shed Rear-Right-Side Ext
",358619.0,172273.0,51.4474412738177,-2.5955334312282226,13,2
358597.0,172261.0,658,M-Shed Rear-Centre-Right Ext,358597.0,172261.0,51.44733176008674,-2.5958486206864415,4,2
358596.0,172259.0,659,"M-Shed Rear-Right-Corner Ext
",358596.0,172259.0,51.44731370274984,-2.595862777200016,4,2
358472.0,172217.0,660,M-Shed Front-Right-Side Ext,358472.0,172217.0,51.44692695225456,-2.5976422798637064,4,2
358511.0,172251.0,661,"M-Shed Front-Right-Corner Ext
",358511.0,172251.0,51.44723554307644,-2.5970850391641993,4,2
358532.0,172261.0,662,M-Shed Front-Centre-Right Ext,358532.0,172261.0,51.44732700267436,-2.5967840095053325,4,2
358574.0,172285.0,663,"M-Shed Front-Centre-Left Ext
",358574.0,172285.0,51.44754588796051,-2.596182414989829,4,2
358574.0,172286.0,664,"M-Shed Front-Left Ext
",358574.0,172286.0,51.44755488006086,-2.596182532096344,4,2
358614.0,172296.0,665,M-Shed Front-Left-Corner Ext,358614.0,172296.0,51.447647726650764,-2.595608075247882,13,2
358533.0,172263.0,666,"M-Shed Rear-Left-Side Ext
",358533.0,172263.0,51.4473450601213,-2.596769853351995,4,2
358483.0,172201.0,667,M-Shed Rear-Left-Corner Ext,358483.0,172201.0,51.44678388544521,-2.5974821069754284,4,2
359391.05,173281.810000001,668,Lower Castle Street/ Broad Weir,359391.05,173281.81,51.456568513352956,-2.584538962104291,50,2
359402.2,169639.4,669,Hartcliffe Road junction with Filwood Broadway. Mounted to street lighting column 13.,359402.2,169639.4,51.423816285040694,-2.5839606287543466,51,2
359074.73,172353.68,670,Redcliffe Hill Roundabout,359074.73,172353.68,51.448199885554914,-2.588984515236099,14,2
359047.39,172407.58,671,Att to column 19,359047.39,172407.58,51.448682583164015,-2.5893842023773326,14,2
357575.0,172141.0,672,MetroBus Wapping Wharf/ Gaol Ferry Bridge - Lamp Post,357575.0,172141.0,51.4461770458927,-2.6105413901632253,104,2
358462.0,172073.0,673,Cumberland Road Vauxhall Bridge,358462.0,172073.0,51.445631356276394,-2.597769276842518,4,2
357188.0,172092.0,674,MetroBus Cumberland Rd VMS,357188.0,172092.0,51.445707302120326,-2.6161044622164717,104,2
359753.0,167887.0,675,601 Whitchurch Lane PTZ Camera mounted to Unit 1.,359753.0,167887.0,51.4080834209647,-2.5787159686811245,51,2
359808.0,167911.0,676,601 Whitchurch Lane PTZ Camera mounted to Unit 9.,359808.0,167911.0,51.408303135449295,-2.577927881661659,51,2
358485.52,167408.0,677,Walwyn Gardens PTZ,358485.52,167408.0,51.4036847765172,-2.5968840749517383,51,2
360926.91,173131.5,678,"Beaufort House, Main Entrance PTZ",360926.91,173131.5,51.455325025877045,-2.56241583097611,30,0
358969.81,173174.9,679,The Pithay/Fairfax Street,358969.81,173174.9,51.45557678568265,-2.590589682227073,1,2
359083.24,173704.029999999,680,Moon Street,359083.24,173704.03,51.46034298535446,-2.5890183001686156,1,2
358879.25,173231.439999999,681,Bridewell Street/ Fairfax Street (Opp Police Station),358879.25,173231.44,51.456078626201666,-2.5918997061954974,2,2
359128.89,173411.710000001,682,Broadmead/Callow Hill Court,359128.89,173411.71,51.45771771504187,-2.5883273852679385,5,2
358735.0,171552.0,683,Metrobus Dalby Avenue Bus Stop,358735.0,171552.0,51.440966430115076,-2.593780027755587,13,2
360392.45,173409.789999999,684,Lawrence Hill Roundabout (South),360392.45,173409.79,51.457790294979624,-2.5701395862159666,45,0
360408.52,174008.779999999,685,next to 008,360408.52,174008.78,51.46317761087805,-2.5699753647068273,23,0
360449.84,173789.050000001,686,on col 51,360449.84,173789.05,51.461204661982016,-2.569355949059552,23,0
360431.5,173937.439999999,687,Easton Way/Stapleton Road,360431.5,173937.44,51.462537720609085,-2.569636565858246,23,0
360453.55,173538.66,688,Lawrence Hill Roundabout (North),360453.55,173538.66,51.4589533833342,-2.569274531345419,23,0
360438.35,173911.630000001,689,near FP0009,360438.35,173911.63,51.46230611297582,-2.56953506806659,23,0
360214.0,174219.0,690,"M32, Junct 3 (Easton Way) - Street Lighting Column 1",360214.0,174219.0,51.46505428811818,-2.572799271311096,56,1
360387.91,173995.73,691,"Rawnsley House, Rear PTZ",360387.91,173995.73,51.46305882121585,-2.570270596377772,23,0
360429.68,173739.26,692,Durbin Walk PTZ,360429.68,173739.26,51.460755534772126,-2.569640578980677,23,0
360440.35,173807.02,693,"Twinnell House, Rear Right PTZ",360440.35,173807.02,51.461365587026485,-2.56949456907525,23,0
360491.1,173569.289999999,694,Walker Close Rear Upper PTZ,360491.1,173569.29,51.45923143503444,-2.5687374477865794,23,0
360483.98,173699.470000001,695,"Lansdowne Court, Main Entrance (External)",360483.98,173699.47,51.460401532743475,-2.5688544883295643,23,0
360483.98,173699.470000001,696,"Lansdowne Court, Main entrance PTZ",360483.98,173699.47,51.460401532743475,-2.5688544883295643,23,0
360396.0,174052.0,697,"DEPLOYABLE CAMERA - Fly tipping - Easton Way, mounted to lighting column 7. ",360396.0,174052.0,51.463565373999664,-2.5701604413767893,23,0
361084.42,173058.880000001,698,"Corbett House, Vehicle Gates (Static) ",361084.42,173058.88,51.454682868459074,-2.5601407653866226,35,0
361076.78,173076.52,699,"Corbett House, Front  PTZ",361076.78,173076.52,51.454840964556745,-2.560252669677138,35,0
361064.85,173080.279999999,700,"Corbett House, Main Entrance Door Panel",361064.85,173080.28,51.454873954451735,-2.560424792785215,35,0
361064.85,173080.279999999,701,"Corbett House, Laundry (Outside Laundry)",361064.85,173080.28,51.454873954451735,-2.560424792785215,35,0
361064.85,173080.279999999,702,"Corbett House, Lift #1",361064.85,173080.28,51.454873954451735,-2.560424792785215,35,0
361064.85,173080.279999999,703,"Corbett House, Lift #2",361064.85,173080.28,51.454873954451735,-2.560424792785215,35,0
361064.85,173080.279999999,704,"Corbett House, Laundry",361064.85,173080.28,51.454873954451735,-2.560424792785215,35,0
361064.85,173080.279999999,705,"Corbett House, Lift lobby (right)",361064.85,173080.28,51.454873954451735,-2.560424792785215,35,0
361064.85,173080.279999999,706,"Corbett House, Stairwell (Internal)",361064.85,173080.28,51.454873954451735,-2.560424792785215,35,0
361064.85,173080.279999999,707,"Corbett House, Main Entrance (Internal)",361064.85,173080.28,51.454873954451735,-2.560424792785215,35,0
361064.85,173080.279999999,708,"Corbett House, Lift Lobby (Left)",361064.85,173080.28,51.454873954451735,-2.560424792785215,35,0
361064.85,173080.279999999,709,"Corbett House, Waiting Room",361064.85,173080.28,51.454873954451735,-2.560424792785215,35,0
359352.73,173190.810000001,710,Castle Park (North East Corner),359352.73,173190.81,51.45574748085587,-2.585080060678082,50,2
359703.13,173445.029999999,711,"Ropewalk House, Main Entrance PTZ, St Jude's",359703.13,173445.03,51.45805851290116,-2.5800656291379913,51,2
359704.93,173443.35,712,"Ropewalk House Lift #2, St Jude's",359704.93,173443.35,51.45804353432557,-2.580039528430905,51,2
359704.93,173443.35,713,"Ropewalk House Lift Lobby #2, St Jude's",359704.93,173443.35,51.45804353432557,-2.580039528430905,51,2
359698.26,173443.4,714,"Ropewalk House Laundry, St Jude's",359698.26,173443.4,51.45804350896297,-2.5801355421640344,51,2
359717.69,173458.039999999,715,Ropewalk House Lobby #1,359717.69,173458.04,51.45817653684371,-2.579857534701581,51,2
359452.67,173106.369999999,716,Old Market Street/Lower Castle Street,359452.67,173106.37,51.454995356090656,-2.583631913559937,50,2
361020.7,173166.92,717,"longlands stairwell 
",361020.7,173166.92,51.455649994896326,-2.5610697974632464,34,0
361020.7,173166.92,718,"longlands hse rear bk door
",361020.7,173166.92,51.455649994896326,-2.5610697974632464,34,0
361020.7,173166.92,719,"longlands far lobby 
",361020.7,173166.92,51.455649994896326,-2.5610697974632464,34,0
361020.7,173166.92,720,"Longlands House, Main Entrance Door Panel",361020.7,173166.92,51.455649994896326,-2.5610697974632464,34,0
361020.7,173166.92,721,"Longlands House, Lift Lobby (Left)",361020.7,173166.92,51.455649994896326,-2.5610697974632464,34,0
361020.7,173166.92,722,"Longlands FR door lobby
",361020.7,173166.92,51.455649994896326,-2.5610697974632464,34,0
361020.7,173166.92,723,"Longlands House, Main Entrance (Internal)",361020.7,173166.92,51.455649994896326,-2.5610697974632464,34,0
361002.0,173180.0,724,"longlands house front PTZ
",361002.0,173180.0,51.45576632389673,-2.5613403948737443,34,0
361008.19,173156.67,725,"longlands FR right external dome
",361008.19,173156.67,51.455556963688494,-2.561248727342287,34,0
358200.91,172720.050000001,726,"CAMERA 16 - College Street Car Park, Cycle Racks Central/Upper Internal (by door 8, looking down bike racks)",358200.91,172720.05,51.451430472394684,-2.6016028359051835,104,2
358209.81,172719.75,727,"CAMERA 13 - College Street Car Park, Upper/Middle Left Internal (looking at final exit arrow on ground, also opposite camera 3. in front of permit bay 13)",358209.81,172719.75,51.451428431910216,-2.601474712787847,104,2
358214.54,172711.82,728,"CAMERA 4 - College Street Car Park, Right Corner Facing Door Internal (facing door 6)",358214.54,172711.82,51.45135747385698,-2.6014057023113013,104,2
358200.9,172727.279999999,729,"CAMERA 2 - College Street Car Park, Upper POF Internal (looking at pay machine)",358200.9,172727.28,51.451495484433984,-2.6016038343219012,104,2
358201.86,172733.5,730,CAMERA 1 - College Street Pedestrian Entry/Exit Internal (looking at permit bay 6),358201.86,172733.5,51.45155148609456,-2.6015907532185194,104,2
358191.12,172729.470000001,731,"CAMERA 15 - College Street Car Park, Vehicle Entry/Exit Internal",358191.12,172729.47,51.451514454820256,-2.601744845925461,104,2
358206.9,172729.23,732,"College Street Car Park, EXTERNAL",358206.9,172729.23,51.45151346203382,-2.6015177133962744,104,2
358201.53,172727.27,733,"CAMERA 7 - College Street car Park, EXTERNAL",358201.53,172727.27,51.45149544103459,-2.601594766247409,104,2
358215.72,172712.48,734,College Street Car Park External PTZ,358215.72,172712.48,51.451363495739706,-2.6013887979039034,104,2
358242.0,172712.0,735,CITY HALL - Camera 14 - Bike Shed internal (Deanery Road),358242.0,172712.0,51.45136111885515,-2.601010523335213,101,2
358244.0,172727.0,736,CITY HALL - Camera 15 - Bike Shed Door (Deanery Road),358244.0,172727.0,51.451496147691756,-2.6009835106163406,101,2
358243.0,172768.0,737,CITY HALL - Camera 17 - Door 2 (College Street),358243.0,172768.0,51.451864749453065,-2.601002743392311,101,2
358237.0,172777.0,738,CITY HALL - Camera 18 - Ramp (College Street),358237.0,172777.0,51.45194523556733,-2.601090158254474,101,2
358238.0,172777.0,739,CITY HALL - Camera 19 - Cash Hall (Deanery Road),358238.0,172777.0,51.45194530934799,-2.6010757662186332,101,2
358982.5,172914.5,740,Bristol Bridge/Baldwin Street,358982.5,172914.5,51.453236162876635,-2.5903768266810765,5,2
357636.72,174131.75,741,Clifton Down Station Camera 1,357636.72,174131.75,51.464082623417966,-2.6098917355153435,48,1
357665.0,174130.0,742,Clifton Down Rail Station 2,357665.0,174130.0,51.46406900406522,-2.6094844117845115,48,1
358249.0,172805.0,743,CITY HALL - Camera 1 - Cash Hall entrance (Central),358249.0,172805.0,51.452197899216515,-2.600920759387479,101,2
358255.0,172822.0,744,CITY HALL - Camera 2 - Cash Hall entrance (Park Street),358255.0,172822.0,51.452351207203634,-2.600836413378671,101,2
358258.0,172823.0,745,CITY HALL - Camera 3 - Door 3 (Frog Lane),358258.0,172823.0,51.45236042053354,-2.6007933549184616,101,2
358264.0,172823.0,746,CITY HALL - Camera 4 - Door 3 (Fire door),358264.0,172823.0,51.452360862975,-2.600707001914526,101,2
358963.0,172016.869999999,747,Att to Column 8,358963.0,172016.87,51.44516316450227,-2.5905533386779522,14,2
358825.0,173390.0,748,Metrobus Lewins Mead/ Broadmead,358825.0,173390.0,51.45750046801025,-2.592699011597737,12,2
359531.94,173533.57,749,between 17 and 19,359531.94,173533.57,51.45884245813224,-2.582539874537646,50,2
359497.86,173363.140000001,750,Bond Street/ Temple Way opposite Champion square (on traffic column),359497.86,173363.14,51.45730749546268,-2.5830109054441026,50,2
359325.18,168135.92,751,Whitchurch Lane,359325.18,168135.92,51.41029122041895,-2.5848958545326406,51,2
359585.0,168261.0,752,Whitchurch Lane/ Hengrove Park 5 (Hanger Way),359585.0,168261.0,51.41143454567598,-2.581174161694305,51,2
359046.44,172196.859999999,753,Redcliffe Hill,359046.44,172196.86,51.446787696783275,-2.589373478337306,14,2
360335.1,173967.560000001,754,"Rawnsley House, Right Front PTZ",360335.1,173967.56,51.46280181362119,-2.5710276670397474,23,0
358570.44,172504.26,755,Narrow Quay/Farr's Lane (Peros Bridge),358570.44,172504.26,51.4495172350181,-2.596259326191127,4,2
358323.0,172594.0,756,"Explore Lane (on anchor road, looking at explore lane)",358323.0,172594.0,51.45030602198748,-2.5998308781685457,4,2
361108.12,171604.630000001,757,Bath Road/Spine Road,361108.12,171604.63,51.44160765287843,-2.5596397610992208,36,0
358959.54,172081.34,758,Redcliffe Bridge Roundabout (Bedminster Bridge),358959.54,172081.34,51.44574263520854,-2.590610606531047,14,2
356712.0,169677.0,759,Entrance driveway South Bristol Crematorium,356712.0,169677.0,51.42395524571969,-2.622658804685548,104,2
